[{"city":"lausanne","year":1832,"id":2,"job":"notaire","name":"Agassis","job_desc":"notaire","line":"mont\u00e9e de la Palud 19","longitude":6.633442041,"latitude":46.5212755118},{"city":"lausanne","year":1832,"id":3,"job":"march.","name":"Agassis (Mme.)","job_desc":"marchande","line":"Mont\u00e9e de la Palud 22","longitude":6.6335446982,"latitude":46.5210549863},{"city":"lausanne","year":1832,"id":4,"job":"blanchiss.","name":"Agassis (Mme.)","job_desc":"blanchisseuse","line":"Place de la Palud 21","longitude":6.6332678267,"latitude":46.5219078281},{"city":"lausanne","year":1832,"id":5,"job":"menuisi.","name":"Aguet","job_desc":"menuisier","line":"Cit\u00e9-dessous 27","longitude":6.6360482312,"latitude":46.5215947176},{"city":"lausanne","year":1832,"id":6,"job":"pharmaci.","name":"Allamand","job_desc":"pharmacien","line":"Mont\u00e9e de St Fran\u00e7ois 22","longitude":6.6335796018,"latitude":46.5206817189},{"city":"lausanne","year":1832,"id":7,"job":"peintre","name":"Albers","job_desc":"peintre","line":"Martheray 34","longitude":6.6393480262,"latitude":46.5209735184},{"city":"lausanne","year":1832,"id":9,"job":"commissionnaire","name":"Aider (J.J.)","job_desc":"commissionnaire","line":"Mont\u00e9e St Fran\u00e7ois 3","longitude":6.6335180495,"latitude":46.5192170211},{"city":"lausanne","year":1832,"id":11,"job":"institut.","name":"Ammann (Dlle.)","job_desc":"institutrice","line":"Mont\u00e9e St Laurent 13","longitude":6.629860788,"latitude":46.5228956464},{"city":"lausanne","year":1832,"id":12,"job":"boulang.","name":"Amy (Mo\u00efse)","job_desc":"boulanger","line":"Cheneau de Bourg 23","longitude":6.6362389268,"latitude":46.5206577703},{"city":"lausanne","year":1832,"id":13,"job":"reli.","name":"Atny","job_desc":"relieur","line":"Cheneau de Bourg 23","longitude":6.6362389268,"latitude":46.5206577703},{"city":"lausanne","year":1832,"id":15,"job":"avocat","name":"Anet","job_desc":"avocat","line":"Martheray 3","longitude":6.6379068394,"latitude":46.5202854637},{"city":"lausanne","year":1832,"id":18,"job":"cordonni.","name":"Arnold","job_desc":"cordonnier","line":"rue St Pierre 14","longitude":6.6368800511,"latitude":46.5196543835},{"city":"lausanne","year":1832,"id":19,"job":"menuisi.","name":"* Arny (Benjamin)","job_desc":"menuisier","line":"la Barre 32","longitude":6.6360380417,"latitude":46.5253176957},{"city":"lausanne","year":1832,"id":21,"job":"cabaret.","name":"Aubert","job_desc":"cabaretier","line":"Halle de St Laurent 65","longitude":6.6287966377,"latitude":46.5234251179},{"city":"lausanne","year":1832,"id":22,"job":"voituri.","name":"Aubert","job_desc":"voiturier","line":"Cheneau de Bourg 1","longitude":6.6362071261,"latitude":46.5201787336},{"city":"lausanne","year":1832,"id":22,"job":"cocher","name":"Aubert","job_desc":"voiturier","line":"Cheneau de Bourg 1","longitude":6.6362071261,"latitude":46.5201787336},{"city":"lausanne","year":1832,"id":24,"job":"charcuti.","name":"Augsbourger","job_desc":"charcutier","line":"mont\u00e9e de la Palud 4","longitude":6.6332467419,"latitude":46.5212117662},{"city":"lausanne","year":1832,"id":25,"job":"serruri.","name":"Baatard (p\u00e8re)","job_desc":"serrurier","line":"Cit\u00e9-devant 18","longitude":6.6356937264,"latitude":46.524008886},{"city":"lausanne","year":1832,"id":26,"job":"serruri.","name":"* Baatard (fils)","job_desc":"serrurier","line":"Cit\u00e9-devant 17","longitude":6.6357284301,"latitude":46.5240491014},{"city":"lausanne","year":1832,"id":28,"job":"\u00e9picerie","name":"Baatard","job_desc":"\u00e9picier","line":"Grand St Jean 49","longitude":6.6305403898,"latitude":46.5219990704},{"city":"lausanne","year":1832,"id":29,"job":"poti.","name":"Bachman","job_desc":"potier de terre","line":"Halle de St Laurent 20","longitude":6.6282339179,"latitude":46.523278036},{"city":"lausanne","year":1832,"id":30,"job":"menuisi.","name":"Badan","job_desc":"menuisier","line":"Cit\u00e9-dessous 28","longitude":6.6360399597,"latitude":46.5216448025},{"city":"lausanne","year":1832,"id":33,"job":"\u00e9picerie","name":"Baldy","job_desc":"\u00e9picier","line":"Grand-Ch\u00eane 28","longitude":6.6315627092,"latitude":46.5198404431},{"city":"lausanne","year":1832,"id":34,"job":"cordonni.","name":"Bally","job_desc":"cordonnier","line":"rue de la Mercerie 14","longitude":6.6343473391,"latitude":46.5215916018},{"city":"lausanne","year":1832,"id":35,"job":"tourn.","name":"Bally","job_desc":"tourneur","line":"Grand St Jean 9","longitude":6.6312066913,"latitude":46.5215963119},{"city":"lausanne","year":1832,"id":36,"job":"voituri.","name":"Bally","job_desc":"voiturier","line":"Petit-Ch\u00eane 1","longitude":6.6319429737,"latitude":46.5194467137},{"city":"lausanne","year":1832,"id":36,"job":"cocher","name":"Bally","job_desc":"voiturier","line":"Petit-Ch\u00eane 1","longitude":6.6319429737,"latitude":46.5194467137},{"city":"lausanne","year":1832,"id":37,"job":"serruri.","name":"Ballenegger","job_desc":"serrurier","line":"Grand St Jean 37","longitude":6.6314406613,"latitude":46.5213547763},{"city":"lausanne","year":1832,"id":39,"job":"couvr.","name":"Barbaz","job_desc":"couvreur","line":"mont\u00e9e de St Laurent 20","longitude":6.6317074187,"latitude":46.522372764},{"city":"lausanne","year":1832,"id":42,"job":"sage-femme","name":"Bardet (Madeleine)","job_desc":"sage-femme","line":"Martheray 39","longitude":6.6384440506,"latitude":46.5204720055},{"city":"lausanne","year":1832,"id":44,"job":"march.","name":"Barraud","job_desc":"marchand","line":"Cit\u00e9-derri\u00e8re 17","longitude":6.6363016924,"latitude":46.5237999172},{"city":"lausanne","year":1832,"id":45,"job":"trait.","name":"Barraud","job_desc":"traiteur","line":"mont\u00e9e de St Laurent 14","longitude":6.631390935,"latitude":46.5228285181},{"city":"lausanne","year":1832,"id":47,"job":"march.","name":"Barrelet (Jentiy)","job_desc":"marchande","line":"Martheray 41","longitude":6.638350752,"latitude":46.520391204},{"city":"lausanne","year":1832,"id":49,"job":"institut.","name":"Baud (Dlle.)","job_desc":"institutrice","line":"Place de St Laurent 8","longitude":6.6305662422,"latitude":46.5223747951},{"city":"lausanne","year":1832,"id":50,"job":"armuri.","name":"Baud","job_desc":"armurier","line":"place de St Laurent 14","longitude":6.6305662422,"latitude":46.5223747951},{"city":"lausanne","year":1832,"id":51,"job":"cordonni.","name":"Baud (F .)","job_desc":"cordonnier","line":"Grand St Jean 11","longitude":6.6314421735,"latitude":46.5214952283},{"city":"lausanne","year":1832,"id":52,"job":"poti.","name":"Baud","job_desc":"potier de terre","line":"rue St Pierre 10","longitude":6.6368800511,"latitude":46.5196543835},{"city":"lausanne","year":1832,"id":53,"job":"blanchiss.","name":"Baud (Mme.)","job_desc":"blanchisseuse","line":"Rue de la Madeleine 14","longitude":6.6330960053,"latitude":46.5223298178},{"city":"lausanne","year":1832,"id":54,"job":"institut.","name":"Baudet","job_desc":"instituteur","line":"rue de Chaucrau 9","longitude":6.6309093285,"latitude":46.5230930606},{"city":"lausanne","year":1832,"id":55,"job":"blanchiss.","name":"Baudet (Mines)","job_desc":"blanchisseuses","line":"Cheneau de Bourg 10","longitude":6.6361906637,"latitude":46.5206043726},{"city":"lausanne","year":1832,"id":56,"job":"cordonni.","name":"Baudet (Simon)","job_desc":"cordonnier","line":"Cit\u00e9-dessous 18","longitude":6.6360813173,"latitude":46.5215594304},{"city":"lausanne","year":1832,"id":57,"job":"cordonni.","name":"Baup (Jean)","job_desc":"cordonnier","line":"Grand St Jean 3","longitude":6.6308301892,"latitude":46.5218650196},{"city":"lausanne","year":1832,"id":58,"job":"serruri.","name":"Bavaud","job_desc":"serrurier","line":"rue du Pr\u00e9 22","longitude":6.6356116111,"latitude":46.5209330776},{"city":"lausanne","year":1832,"id":67,"job":"\u00e9picerie","name":"B\u00e9gos (Marc)","job_desc":"\u00e9picerie","line":"place de la Palud 20","longitude":6.6331731823,"latitude":46.5219323709},{"city":"lausanne","year":1832,"id":68,"job":"blanchiss.","name":"Bellet (Dlle. Lse)","job_desc":"blanchisseuse","line":"Cit\u00e9-derri\u00e8re 29","longitude":6.6357816611,"latitude":46.5229836126},{"city":"lausanne","year":1832,"id":69,"job":"trait.","name":"Benoit","job_desc":"traiteur","line":"mont\u00e9e de St Fran\u00e7ois 1","longitude":6.6337577813,"latitude":46.5208131704},{"city":"lausanne","year":1832,"id":70,"job":"pharmaci.","name":"B\u00e9ranger","job_desc":"pharmacien","line":"mont\u00e9e de la Palud 2","longitude":6.6332830475,"latitude":46.5211239006},{"city":"lausanne","year":1832,"id":71,"job":"jardini.","name":"Berger","job_desc":"jardinier","line":"Petit-Ch\u00eane 4","longitude":6.6318356773,"latitude":46.5192576012},{"city":"lausanne","year":1832,"id":72,"job":"laiti.","name":"Berger","job_desc":"laitier","line":"Halle de St Laurent 53","longitude":6.62849263,"latitude":46.5235442988},{"city":"lausanne","year":1832,"id":73,"job":"cafeti.","name":"Bernard","job_desc":"caf\u00e9 et billard","line":"Cit\u00e9-devant 9","longitude":6.6353996583,"latitude":46.5239535898},{"city":"lausanne","year":1832,"id":73,"job":"billard","name":"Bernard","job_desc":"caf\u00e9 et billard","line":"Cit\u00e9-devant 9","longitude":6.6353996583,"latitude":46.5239535898},{"city":"lausanne","year":1832,"id":75,"job":"armuri.","name":"Berney","job_desc":"armurier","line":"Cit\u00e9-devant 13","longitude":6.6359713558,"latitude":46.5240981138},{"city":"lausanne","year":1832,"id":76,"job":"horlog.","name":"Bersot","job_desc":"horloger","line":"place St Fran\u00e7ois 19","longitude":6.6337335762,"latitude":46.5200839694},{"city":"lausanne","year":1832,"id":77,"job":"laiti.","name":"Bertholet","job_desc":"laitier","line":"Cit\u00e9-devant 29","longitude":6.6352827617,"latitude":46.5232209099},{"city":"lausanne","year":1832,"id":79,"job":"chapeli.","name":"Bertrand","job_desc":"chapelier","line":"place St Fran\u00e7ois 1","longitude":6.6338149556,"latitude":46.5199488528},{"city":"lausanne","year":1832,"id":81,"job":"cabaret.","name":"Besson","job_desc":"cabaretier","line":"place de la Palud 12","longitude":6.6320976802,"latitude":46.5222678381},{"city":"lausanne","year":1832,"id":83,"job":"toilerie","name":"Billard","job_desc":"toileries","line":"mont\u00e9e de St Fran\u00e7ois 11","longitude":6.6339028965,"latitude":46.5202077324},{"city":"lausanne","year":1832,"id":84,"job":"pharmaci.","name":"Bischoff","job_desc":"pharmacien","line":"rue de Bourg 4","longitude":6.6342019741,"latitude":46.5201512685},{"city":"lausanne","year":1832,"id":88,"job":"tisser.","name":"Blanc","job_desc":"tisserand","line":"chemin des Eaux","longitude":6.6408739796,"latitude":46.5214954021},{"city":"lausanne","year":1832,"id":89,"job":"charron","name":"Blanc","job_desc":"charron","line":"rue de Chaucrau 13","longitude":6.6311061832,"latitude":46.5231977045},{"city":"lausanne","year":1832,"id":90,"job":"fond.","name":"Blanc","job_desc":"fondeur","line":"rue du Grand St Jean 31","longitude":6.6318865293,"latitude":46.5212036457},{"city":"lausanne","year":1832,"id":92,"job":"\u00e9picerie","name":"Blanchard (Marc)","job_desc":"\u00e9picier","line":"place St Laurent 24","longitude":6.6305662422,"latitude":46.5223747951},{"city":"lausanne","year":1832,"id":94,"job":"confis.","name":"Blanchet","job_desc":"confiseur","line":"rue de Bourg 14","longitude":6.6350258788,"latitude":46.5201125706},{"city":"lausanne","year":1832,"id":95,"job":"tann.","name":"Blanchet","job_desc":"tanneur","line":"rue du Pr\u00e9 35","longitude":6.635183066,"latitude":46.5208662233},{"city":"lausanne","year":1832,"id":96,"job":"docteur droit","name":"Blanchenay","job_desc":"docteur en droit","line":"Place de St Laurent 24","longitude":6.6305662422,"latitude":46.5223747951},{"city":"lausanne","year":1832,"id":97,"job":"\u00e9picerie","name":"Blatter","job_desc":"\u00e9picier","line":"rue du Pr\u00e9 44","longitude":6.6345984833,"latitude":46.5209550915},{"city":"lausanne","year":1832,"id":98,"job":"\u00e9picerie","name":"Blondel","job_desc":"\u00e9picerie","line":"place de la Palud 3","longitude":6.6326714909,"latitude":46.5219643168},{"city":"lausanne","year":1832,"id":99,"job":"poti.","name":"Blondel","job_desc":"potier de terre","line":"Etraz 15","longitude":6.6385979107,"latitude":46.5193667425},{"city":"lausanne","year":1832,"id":100,"job":"jardini.","name":"Blondel","job_desc":"jardinier","line":"Etraz 15","longitude":6.6385979107,"latitude":46.5193667425},{"city":"lausanne","year":1832,"id":101,"job":"menuisi.","name":"* Blondel","job_desc":"menuisier","line":"Etraz 15","longitude":6.6385979107,"latitude":46.5193667425},{"city":"lausanne","year":1832,"id":102,"job":"laiti.","name":"Blum","job_desc":"laitier","line":"rue St Pierre 21","longitude":6.6366532802,"latitude":46.5196468575},{"city":"lausanne","year":1832,"id":103,"job":"menuisi.","name":"Bocion","job_desc":"menuisier","line":"rue Chaucrau 23","longitude":6.6312007906,"latitude":46.5231445323},{"city":"lausanne","year":1832,"id":105,"job":"taill.","name":"Bonmottet","job_desc":"tailleur","line":"rue du Petit St Jean 2","longitude":6.6328110747,"latitude":46.5210687692},{"city":"lausanne","year":1832,"id":106,"job":"cordonni.","name":"Bonnet","job_desc":"cordonnier","line":"place de la Palud 21","longitude":6.6332678267,"latitude":46.5219078281},{"city":"lausanne","year":1832,"id":107,"job":"perruqui.","name":"Bonnet","job_desc":"perruquier","line":"place du Pont 2","longitude":6.6338684261,"latitude":46.5210229741},{"city":"lausanne","year":1832,"id":108,"job":"taill.","name":"Bonnet (Elle.)","job_desc":"tailleuse","line":"Mont\u00e9e St Laurent 4","longitude":6.6303568034,"latitude":46.5223775208},{"city":"lausanne","year":1832,"id":109,"job":"ferblanti.","name":"Bastian-Petter","job_desc":"ferblantier","line":"mont\u00e9e de St Laurent 8","longitude":6.6312883229,"latitude":46.5222666321},{"city":"lausanne","year":1832,"id":110,"job":"toilerie","name":"Bontems (veuve et fils)","job_desc":"toileries","line":"mont\u00e9e St Laurent 20","longitude":6.629946306,"latitude":46.5230308574},{"city":"lausanne","year":1832,"id":112,"job":"toilerie","name":"Borgeaud","job_desc":"toileries","line":"rue de Bourg 27","longitude":6.6362122059,"latitude":46.5200841475},{"city":"lausanne","year":1832,"id":113,"job":"taill.","name":"Borloz","job_desc":"tailleur","line":"rue du Pr\u00e9 20","longitude":6.6353966801,"latitude":46.5209357658},{"city":"lausanne","year":1832,"id":114,"job":"toilerie","name":"Boucheries (Mme.)","job_desc":"toileries","line":"rue de Chaucrau 1","longitude":6.6306741124,"latitude":46.5225777357},{"city":"lausanne","year":1832,"id":115,"job":"notaire","name":"Boucheries (Louis)","job_desc":"notaire","line":"Chaucrau 1","longitude":6.6306741124,"latitude":46.5225777357},{"city":"lausanne","year":1832,"id":116,"job":"blanchiss.","name":"Bouchet (Mme.)","job_desc":"blanchisseuse","line":"rue de Martheray 41","longitude":6.638350752,"latitude":46.520391204},{"city":"lausanne","year":1832,"id":120,"job":"draperie","name":"Bourloz","job_desc":"draperie","line":"rue St Pierre 6","longitude":6.636647849,"latitude":46.519862495},{"city":"lausanne","year":1832,"id":121,"job":"menuisi.","name":"* Bovard","job_desc":"menuisier","line":"Cit\u00e9-derri\u00e8re 29","longitude":6.6357816611,"latitude":46.5229836126},{"city":"lausanne","year":1832,"id":123,"job":"march.","name":"Braissant","job_desc":"marchand de bois","line":"mont\u00e9e de P\u00e9pinet 30","longitude":6.6320035967,"latitude":46.5202746586},{"city":"lausanne","year":1832,"id":123,"job":"bois","name":"Braissant","job_desc":"marchand de bois","line":"mont\u00e9e de P\u00e9pinet 30","longitude":6.6320035967,"latitude":46.5202746586},{"city":"lausanne","year":1832,"id":125,"job":"cordonni.","name":"Brandt","job_desc":"cordonnier","line":"Grand St Jean 20","longitude":6.6321407709,"latitude":46.5212960212},{"city":"lausanne","year":1832,"id":126,"job":"laiti.","name":"Brandt","job_desc":"laitier","line":"rue de la Mercerie 15","longitude":6.6342815349,"latitude":46.5216034136},{"city":"lausanne","year":1832,"id":127,"job":"trait.","name":"Br\u00e9laz","job_desc":"traiteur","line":"Grand St Jean 40","longitude":6.6312232182,"latitude":46.5214514997},{"city":"lausanne","year":1832,"id":128,"job":"couteli.","name":"* Breymeyer","job_desc":"coutelier","line":"Cheneau de Bourg 10","longitude":6.6361906637,"latitude":46.5206043726},{"city":"lausanne","year":1832,"id":129,"job":"couteli.","name":"Breymeyer","job_desc":"coutelier","line":"rue du Pr\u00e9 10","longitude":6.6346208026,"latitude":46.5210502842},{"city":"lausanne","year":1832,"id":130,"job":"cordonni.","name":"Breymeyer","job_desc":"cordonnier","line":"rue du Pr\u00e9 9","longitude":6.6345552107,"latitude":46.5210517246},{"city":"lausanne","year":1832,"id":131,"job":"institut.","name":"Brindeau (Mme.)","job_desc":"institutrice","line":"St-Pierre 1","longitude":6.6363088928,"latitude":46.5200176606},{"city":"lausanne","year":1832,"id":132,"job":"\u00e9picerie","name":"Brouppaclier (Mme. veuve)","job_desc":"\u00e9picerie","line":"rue de Bourg 21","longitude":6.6358487074,"latitude":46.5200858529},{"city":"lausanne","year":1832,"id":134,"job":"trait.","name":"Brun","job_desc":"traiteur","line":"rue de la Madeleine 11","longitude":6.6330900546,"latitude":46.522574467},{"city":"lausanne","year":1832,"id":136,"job":"voituri.","name":"Brun","job_desc":"voiturier","line":"Cheneau de Bourg 50","longitude":6.6364419691,"latitude":46.5202986832},{"city":"lausanne","year":1832,"id":136,"job":"cocher","name":"Brun","job_desc":"voiturier","line":"Cheneau de Bourg 50","longitude":6.6364419691,"latitude":46.5202986832},{"city":"lausanne","year":1832,"id":137,"job":"march.","name":"Brunner","job_desc":"marchand","line":"Mercerie 19","longitude":6.633852377,"latitude":46.5217668102},{"city":"lausanne","year":1832,"id":138,"job":"chaudronni.","name":"Brunner (Am\u00e9d\u00e9e)","job_desc":"chaudronnier","line":"Escaliers march\u00e9 9","longitude":6.6338024256,"latitude":46.5222621239},{"city":"lausanne","year":1832,"id":139,"job":"boulang.","name":"Buffat","job_desc":"boulanger","line":"rue du Pr\u00e9 47","longitude":6.634255369,"latitude":46.5209584282},{"city":"lausanne","year":1832,"id":140,"job":"banque","name":"Bugnion","job_desc":"banquier","line":"rue de la Mercerie 11","longitude":6.6345805149,"latitude":46.521533527},{"city":"lausanne","year":1832,"id":142,"job":"cabaret.","name":"Bugnion","job_desc":"cabaretier","line":"rue du Pr\u00e9 14","longitude":6.6349822419,"latitude":46.5209978593},{"city":"lausanne","year":1832,"id":143,"job":"trait.","name":"Buhler","job_desc":"traiteur","line":"Cheneau de Bourg 49","longitude":6.6364824706,"latitude":46.5203437655},{"city":"lausanne","year":1832,"id":145,"job":"cordonni.","name":"Burger","job_desc":"cordonnier","line":"Cit\u00e9-devant 26","longitude":6.6353028533,"latitude":46.5233227065},{"city":"lausanne","year":1832,"id":147,"job":"taill.","name":"Burgin (Dlle.)","job_desc":"tailleuse","line":"Mont\u00e9e de St Fran\u00e7ois 1","longitude":6.6337577813,"latitude":46.5208131704},{"city":"lausanne","year":1832,"id":148,"job":"menuisi.","name":"Burnier","job_desc":"menuisier","line":"rue de Martheray 48","longitude":6.6381271569,"latitude":46.5201399439},{"city":"lausanne","year":1832,"id":151,"job":"institut.","name":"Bury","job_desc":"instituteur","line":"Escaliers du march\u00e9 9","longitude":6.6338024256,"latitude":46.5222621239},{"city":"lausanne","year":1832,"id":152,"job":"cordonni.","name":"Bury","job_desc":"cordonnier","line":"rue St Pierre 12","longitude":6.6368800511,"latitude":46.5196543835},{"city":"lausanne","year":1832,"id":153,"job":"chapeli.","name":"Bury","job_desc":"chapelier","line":"place de la Palud 23","longitude":6.6334542193,"latitude":46.5217209455},{"city":"lausanne","year":1832,"id":154,"job":"couvr.","name":"Busset","job_desc":"couvreur","line":"Martheray 15","longitude":6.6399767565,"latitude":46.5213700876},{"city":"lausanne","year":1832,"id":156,"job":"sage-femme","name":"Bussy (Mme.)","job_desc":"sage-femme","line":"Cit\u00e9-derri\u00e8re 18","longitude":6.6362997211,"latitude":46.5237755022},{"city":"lausanne","year":1832,"id":157,"job":"menuisi.","name":"* Bussy","job_desc":"menuisier","line":"Cit\u00e9-derri\u00e8re 18","longitude":6.6362997211,"latitude":46.5237755022},{"city":"lausanne","year":1832,"id":160,"job":"cabaret.","name":"Cachemaille","job_desc":"cabaretier","line":"Petit St Jean 6","longitude":6.6330652139,"latitude":46.5209507533},{"city":"lausanne","year":1832,"id":163,"job":"ma\u00e7on.","name":"Cassat","job_desc":"ma\u00e7on","line":"Cheneau de Bourg 16","longitude":6.6362389268,"latitude":46.5206577703},{"city":"lausanne","year":1832,"id":164,"job":"jardini.","name":"Caraby","job_desc":"jardinier","line":"rue de Martlieray 40","longitude":6.6384022271,"latitude":46.5204310514},{"city":"lausanne","year":1832,"id":165,"job":"cabaret.","name":"Cavin (L.)","job_desc":"cabaretier","line":"rue d' Etraz 1","longitude":6.6376945003,"latitude":46.5195160543},{"city":"lausanne","year":1832,"id":166,"job":"taill.","name":"Cavin (Dlle. Sophie)","job_desc":"tailleuse en dames","line":"Petit\u00ad St Jean 4","longitude":6.6329832133,"latitude":46.5209834876},{"city":"lausanne","year":1832,"id":168,"job":"institut.","name":"Chabot","job_desc":"institutrice","line":"Grand St Jean 31","longitude":6.6318865293,"latitude":46.5212036457},{"city":"lausanne","year":1832,"id":169,"job":"coiff.","name":"Chabot","job_desc":"coiffeur","line":"mont\u00e9e de St Fran\u00e7ois 9","longitude":6.6339194286,"latitude":46.5202949462},{"city":"lausanne","year":1832,"id":170,"job":"cocher","name":"Chabot","job_desc":"voiturier","line":"rue St Pierre 17","longitude":6.6368338622,"latitude":46.5195557988},{"city":"lausanne","year":1832,"id":170,"job":"voituri.","name":"Chabot","job_desc":"voiturier","line":"rue St Pierre 17","longitude":6.6368338622,"latitude":46.5195557988},{"city":"lausanne","year":1832,"id":171,"job":"modiste","name":"Challet (DIE.)","job_desc":"modiste","line":"mont\u00e9e de P\u00e9pinet 29","longitude":6.6320035967,"latitude":46.5202746586},{"city":"lausanne","year":1832,"id":172,"job":"laiti.","name":"Chambaz","job_desc":"laitier","line":"rue du Pr\u00e9 16","longitude":6.6351052365,"latitude":46.520981301},{"city":"lausanne","year":1832,"id":174,"job":"serruri.","name":"Champaud","job_desc":"serrurier","line":"Halle de St Laurent 49","longitude":6.628223972,"latitude":46.5236160504},{"city":"lausanne","year":1832,"id":176,"job":"boulang.","name":"Chapuis","job_desc":"boulanger","line":"Grand St Jean 19","longitude":6.6321407709,"latitude":46.5212960212},{"city":"lausanne","year":1832,"id":177,"job":"sage-femme","name":"Chapuis (Mme.)","job_desc":"sage-femme","line":"Grand St Jean 49","longitude":6.6305403898,"latitude":46.5219990704},{"city":"lausanne","year":1832,"id":178,"job":"taill.","name":"Chapuis (Mme.)","job_desc":"tailleuse","line":"Halle de St Laurent 47","longitude":6.6281249928,"latitude":46.5236452375},{"city":"lausanne","year":1832,"id":179,"job":"\u00e9picerie","name":"Chapuis (Jaq.)","job_desc":"\u00e9picerie","line":"Etraz 39","longitude":6.6380892559,"latitude":46.519312472},{"city":"lausanne","year":1832,"id":180,"job":"voituri.","name":"Chapuis","job_desc":"voiturier","line":"Cheneau de Bourg 50","longitude":6.6364419691,"latitude":46.5202986832},{"city":"lausanne","year":1832,"id":180,"job":"cocher","name":"Chapuis","job_desc":"voiturier","line":"Cheneau de Bourg 50","longitude":6.6364419691,"latitude":46.5202986832},{"city":"lausanne","year":1832,"id":182,"job":"trait.","name":"Chapuis (veuve)","job_desc":"traiteur","line":"Cit\u00e9-derri\u00e8re 12","longitude":6.6361242721,"latitude":46.523951832},{"city":"lausanne","year":1832,"id":183,"job":"sage-femme","name":"Chapuisat (Mme.)","job_desc":"sage-femme","line":"rue du Pr\u00e9 5-","longitude":6.6341337102,"latitude":46.521059908},{"city":"lausanne","year":1832,"id":184,"job":"march.","name":"Chardon (Dlle. Marguer*.)","job_desc":"marchande","line":"Petit Jean 8","longitude":6.633124054,"latitude":46.5209404161},{"city":"lausanne","year":1832,"id":185,"job":"courtepointi.","name":"Charton (Mme.)","job_desc":"courtepointi\u00e8re","line":"Cheneau de 41","longitude":6.6367493044,"latitude":46.5206265531},{"city":"lausanne","year":1832,"id":185,"job":"couturi.","name":"Charton (Mme.)","job_desc":"courtepointi\u00e8re","line":"Cheneau de 41","longitude":6.6367493044,"latitude":46.5206265531},{"city":"lausanne","year":1832,"id":187,"job":"fripp.","name":"Chatelanat","job_desc":"marchand frippier","line":"Petit St Jean","longitude":6.6327271963,"latitude":46.5211316535},{"city":"lausanne","year":1832,"id":187,"job":"march.","name":"Chatelanat","job_desc":"marchand frippier","line":"Petit St Jean","longitude":6.6327271963,"latitude":46.5211316535},{"city":"lausanne","year":1832,"id":188,"job":"couturi.","name":"Chatelanat (Mme. veuve)","job_desc":"courtepointi\u00e8re","line":"de St Fran\u00e7ois 16","longitude":6.6332383593,"latitude":46.5200568892},{"city":"lausanne","year":1832,"id":188,"job":"courtepointi.","name":"Chatelanat (Mme. veuve)","job_desc":"courtepointi\u00e8re","line":"de St Fran\u00e7ois 16","longitude":6.6332383593,"latitude":46.5200568892},{"city":"lausanne","year":1832,"id":189,"job":"jardini.","name":"Chavan","job_desc":"jardinier","line":"place de St Laurent 4","longitude":6.6305662422,"latitude":46.5223747951},{"city":"lausanne","year":1832,"id":190,"job":"march.","name":"Chavan (Dlle.)","job_desc":"marchande","line":"Chemin de Bourg 5","longitude":6.6362616887,"latitude":46.5203460492},{"city":"lausanne","year":1832,"id":191,"job":"cabaret.","name":"Chavan","job_desc":"cabaretier","line":"Grand St Jean 23","longitude":6.6321407709,"latitude":46.5212960212},{"city":"lausanne","year":1832,"id":194,"job":"charpenti.","name":"Chevalley","job_desc":"charpentier","line":"la Barre 44","longitude":6.6360380417,"latitude":46.5253176957},{"city":"lausanne","year":1832,"id":195,"job":"charpenti.","name":"Cherbuin","job_desc":"charpentier","line":"Martheray 6","longitude":6.6392432378,"latitude":46.5211953757},{"city":"lausanne","year":1832,"id":196,"job":"cabaret.","name":"Cheseaux","job_desc":"cabaretier","line":"Mont\u00e9e de St Laurent 16","longitude":6.6311384399,"latitude":46.5223846637},{"city":"lausanne","year":1832,"id":198,"job":"cabaret.","name":"Chollet","job_desc":"cabaretier","line":"Halle de St Laurent 56","longitude":6.6287966377,"latitude":46.5234251179},{"city":"lausanne","year":1832,"id":199,"job":"ferblanti.","name":"Chollet","job_desc":"ferblantier","line":"rue de Bourg 26","longitude":6.6361510721,"latitude":46.5200841475},{"city":"lausanne","year":1832,"id":200,"job":"taill.","name":"Christin","job_desc":"tailleur","line":"Escaliers du march\u00e9 13","longitude":6.6339735034,"latitude":46.5223628347},{"city":"lausanne","year":1832,"id":201,"job":"trait.","name":"Christin","job_desc":"traiteur","line":"place St Fran\u00e7ois 11","longitude":6.6327660995,"latitude":46.5199237448},{"city":"lausanne","year":1832,"id":202,"job":"charcuti.","name":"Chuard","job_desc":"charcutier","line":"rue du Grand St Jean 13","longitude":6.6316258065,"latitude":46.5214298212},{"city":"lausanne","year":1832,"id":203,"job":"voituri.","name":"Chuard","job_desc":"voiturier","line":"rue du Grand St Jean 13","longitude":6.6316258065,"latitude":46.5214298212},{"city":"lausanne","year":1832,"id":203,"job":"cocher","name":"Chuard","job_desc":"voiturier","line":"rue du Grand St Jean 13","longitude":6.6316258065,"latitude":46.5214298212},{"city":"lausanne","year":1832,"id":204,"job":"menuisi.","name":"Clavel","job_desc":"menuisier","line":"Halle de St Laurent 4 l","longitude":6.6292099903,"latitude":46.5231260653},{"city":"lausanne","year":1832,"id":205,"job":"menuisi.","name":"Clerc","job_desc":"menuisier","line":"Cheneau de Bourg 27","longitude":6.6362389268,"latitude":46.5206577703},{"city":"lausanne","year":1832,"id":206,"job":"cocher","name":"Clerc","job_desc":"voiturier","line":"Cheneau de Bourg 1","longitude":6.6362071261,"latitude":46.5201787336},{"city":"lausanne","year":1832,"id":206,"job":"voituri.","name":"Clerc","job_desc":"voiturier","line":"Cheneau de Bourg 1","longitude":6.6362071261,"latitude":46.5201787336},{"city":"lausanne","year":1832,"id":207,"job":"menuisi.","name":"Cloux","job_desc":"menuisier","line":"Cit\u00e9-devant 4","longitude":6.6347987366,"latitude":46.5229997216},{"city":"lausanne","year":1832,"id":209,"job":"cabaret.","name":"C\u0153ytaux (Ch.)","job_desc":"cabaretier","line":"rue de Bourg 22","longitude":6.635890014,"latitude":46.5200875583},{"city":"lausanne","year":1832,"id":210,"job":"cabaret.","name":"C\u0153ytaux","job_desc":"cabaretier","line":"Cheneau de Bourg 9","longitude":6.6363240168,"latitude":46.5205574955},{"city":"lausanne","year":1832,"id":212,"job":"charpenti.","name":"C\u0153ytaux","job_desc":"charpentier","line":"Cheneau de Bourg 46","longitude":6.6364634111,"latitude":46.5204347495},{"city":"lausanne","year":1832,"id":213,"job":"couvr.","name":"Collomb","job_desc":"couvreur","line":"rue Chaucrau 28","longitude":6.6310994777,"latitude":46.5228981937},{"city":"lausanne","year":1832,"id":214,"job":"blanchiss.","name":"Comte (Mmes.)","job_desc":"blanchisseuses","line":"St Pierre 9","longitude":6.6368800511,"latitude":46.5196543835},{"city":"lausanne","year":1832,"id":215,"job":"taill.","name":"Comte","job_desc":"tailleur","line":"mont\u00e9e de St Fran\u00e7ois 8","longitude":6.6339157548,"latitude":46.5203492968},{"city":"lausanne","year":1832,"id":216,"job":"docteur droit","name":"Conod","job_desc":"docteur en droit","line":"Escaliers du march\u00e9 l4","longitude":6.633627546,"latitude":46.5220580859},{"city":"lausanne","year":1832,"id":217,"job":"modiste","name":"Conod (Dlles.)","job_desc":"modistes","line":"rue de Bourg 21","longitude":6.6358487074,"latitude":46.5200858529},{"city":"lausanne","year":1832,"id":219,"job":"horlog.","name":"Conod","job_desc":"horloger","line":"rue Mercerie 23","longitude":6.6334933148,"latitude":46.5218071671},{"city":"lausanne","year":1832,"id":220,"job":"gypsi.","name":"Constenza","job_desc":"gypsier","line":"rue St Etienne 2","longitude":6.6349046621,"latitude":46.5216005},{"city":"lausanne","year":1832,"id":223,"job":"horlog.","name":"Corbaz","job_desc":"horloger","line":"Rue du Pr\u00e9 17","longitude":6.6351954771,"latitude":46.5209656627},{"city":"lausanne","year":1832,"id":224,"job":"taill.","name":"Corbaz","job_desc":"tailleur","line":"place de St Laurent 8","longitude":6.6305662422,"latitude":46.5223747951},{"city":"lausanne","year":1832,"id":225,"job":"couvr.","name":"Corbaz","job_desc":"couvreur","line":"Cit\u00e9-dessous 19","longitude":6.6360813173,"latitude":46.5215594304},{"city":"lausanne","year":1832,"id":226,"job":"cordonni.","name":"Corbaz (Marc)","job_desc":"cordonnier","line":"mont\u00e9e St Laurent 15","longitude":6.6297043083,"latitude":46.5230195899},{"city":"lausanne","year":1832,"id":227,"job":"ferblanti.","name":"Corbaz","job_desc":"ferblantier","line":"rue de la Mercerie 7","longitude":6.6344903917,"latitude":46.5216378648},{"city":"lausanne","year":1832,"id":229,"job":"cordonni.","name":"Cordey","job_desc":"cordonnier","line":"rue de la Mercerie 3","longitude":6.6340984275,"latitude":46.5217618886},{"city":"lausanne","year":1832,"id":230,"job":"cordonni.","name":"Corsat (J.-D.)","job_desc":"cordonnier","line":"la Barre 11","longitude":6.635633434,"latitude":46.5253361009},{"city":"lausanne","year":1832,"id":231,"job":"cordonni.","name":"Cors\u00e2t (Abram.)","job_desc":"cordonnier","line":"la Barre 12","longitude":6.6357071626,"latitude":46.5253682284},{"city":"lausanne","year":1832,"id":232,"job":"cordonni.","name":"Cors\u00e2t (Rod.)","job_desc":"cordonnier","line":"la Barre 52","longitude":6.6360615701,"latitude":46.5251304736},{"city":"lausanne","year":1832,"id":234,"job":"institut.","name":"Cottier (Mmes)","job_desc":"institutrices","line":"St Pierre 17","longitude":6.6368338622,"latitude":46.5195557988},{"city":"lausanne","year":1832,"id":235,"job":"cabaret.","name":"Cottier","job_desc":"cabaretier","line":"Place St Laurent 2","longitude":6.6305662422,"latitude":46.5223747951},{"city":"lausanne","year":1832,"id":236,"job":"mar\u00e9chal","name":"Couilloud","job_desc":"mar\u00e9chal","line":"Martheray 1","longitude":6.6376245168,"latitude":46.5198245226},{"city":"lausanne","year":1832,"id":237,"job":"serruri.","name":"Couilloud","job_desc":"serrurier","line":"Cheneau de Bourg 16","longitude":6.6362389268,"latitude":46.5206577703},{"city":"lausanne","year":1832,"id":238,"job":"tonneli.","name":"Court","job_desc":"tonnelier","line":"rue de la Madeleine 10","longitude":6.633097493,"latitude":46.5226440741},{"city":"lausanne","year":1832,"id":240,"job":"blanchiss.","name":"Cruchy (Mme.)","job_desc":"blanchisseuse","line":"Petit St Jean 5","longitude":6.6329832133,"latitude":46.5209834876},{"city":"lausanne","year":1832,"id":241,"job":"cordonni.","name":"Cretenoud","job_desc":"cordonnier","line":"Halle de St Laurent 28","longitude":6.627665772,"latitude":46.5235526375},{"city":"lausanne","year":1832,"id":243,"job":"taill.","name":"Crespin","job_desc":"tailleur","line":"mont\u00e9e de la Palud 11","longitude":6.6331785124,"latitude":46.5214499502},{"city":"lausanne","year":1832,"id":244,"job":"blanchiss.","name":"Cr\u00e9tin (Dlles.)","job_desc":"blanchisseuses","line":"Cheneau de Bourg 35","longitude":6.6362389268,"latitude":46.5206577703},{"city":"lausanne","year":1832,"id":246,"job":"blanchiss.","name":"Cruchy (Mme.)","job_desc":"blanchisseuse","line":"Petit St Jean 5","longitude":6.6329832133,"latitude":46.5209834876},{"city":"lausanne","year":1832,"id":247,"job":"math\u00e9matici.","name":"Cuenoud","job_desc":"math\u00e9maticien","line":"Grand-Ch\u00eane 27","longitude":6.6315627092,"latitude":46.5198404431},{"city":"lausanne","year":1832,"id":248,"job":"poti.","name":"Cu\u00e9noud","job_desc":"potier de terre","line":"Halle de St Laurent 77","longitude":6.6287966377,"latitude":46.5234251179},{"city":"lausanne","year":1832,"id":251,"job":"cordonni.","name":"Curchod","job_desc":"cordonnier","line":"rue d' Etraz 4","longitude":6.6379072343,"latitude":46.5194653078},{"city":"lausanne","year":1832,"id":252,"job":"jardini.","name":"Cugny","job_desc":"jardinier","line":"Grand St Jean 37","longitude":6.6314406613,"latitude":46.5213547763},{"city":"lausanne","year":1832,"id":253,"job":"jardini.","name":"Curtet","job_desc":"jardinier","line":"rue Chaucreau 16","longitude":6.6312007906,"latitude":46.5231445323},{"city":"lausanne","year":1832,"id":254,"job":"tapissi.","name":"Dalgas","job_desc":"tapissier","line":"moul\u00e9e de St Laurent 10","longitude":6.6299535841,"latitude":46.5228004977},{"city":"lausanne","year":1832,"id":256,"job":"tann.","name":"Damas","job_desc":"tanneur","line":"Cheneau de Bourg 28","longitude":6.6362389268,"latitude":46.5206577703},{"city":"lausanne","year":1832,"id":257,"job":"\u00e9picerie","name":"Denian (Mme.)","job_desc":"\u00e9picerie","line":"rue St Pierre 26","longitude":6.6362677642,"latitude":46.5198566396},{"city":"lausanne","year":1832,"id":258,"job":"menuisi.","name":"* Dentan","job_desc":"menuisier","line":"Chemin-Neuf 3","longitude":6.6332854634,"latitude":46.5239705184},{"city":"lausanne","year":1832,"id":259,"job":"taill.","name":"Dantzeisen (Dlle.)","job_desc":"tailleuse en dames","line":"rue Bourg 21","longitude":6.6358487074,"latitude":46.5200858529},{"city":"lausanne","year":1832,"id":260,"job":"taill.","name":"Dapaz","job_desc":"tailleur","line":"mont\u00e9e de St Fran\u00e7ois 18","longitude":6.6337247171,"latitude":46.5204592617},{"city":"lausanne","year":1832,"id":261,"job":"chirurgien","name":"Dapas","job_desc":"m\u00e9decin-chirurgien","line":"Grand-Ch\u00eane 28","longitude":6.6315627092,"latitude":46.5198404431},{"city":"lausanne","year":1832,"id":261,"job":"m\u00e9decin","name":"Dapas","job_desc":"m\u00e9decin-chirurgien","line":"Grand-Ch\u00eane 28","longitude":6.6315627092,"latitude":46.5198404431},{"city":"lausanne","year":1832,"id":262,"job":"m\u00e9decin","name":"Dapples-Gaulis","job_desc":"docteur en m\u00e9decine","line":"Cit\u00e9-devant 7","longitude":6.6351759109,"latitude":46.5234634598},{"city":"lausanne","year":1832,"id":262,"job":"doct.","name":"Dapples-Gaulis","job_desc":"docteur en m\u00e9decine","line":"Cit\u00e9-devant 7","longitude":6.6351759109,"latitude":46.5234634598},{"city":"lausanne","year":1832,"id":263,"job":"n\u00e9goce","name":"David (Ch.)","job_desc":"n\u00e9gociant","line":"place St Fran\u00e7ois 8","longitude":6.6324790153,"latitude":46.5196188199},{"city":"lausanne","year":1832,"id":265,"job":"confis.","name":"Daxelhoffer","job_desc":"confiseur","line":"rue St Pierre 2","longitude":6.6363968228,"latitude":46.5199952153},{"city":"lausanne","year":1832,"id":267,"job":"cabaret.","name":"D\u00e9combaz","job_desc":"cabaretier","line":"rue St Pierre 19","longitude":6.636771016,"latitude":46.5195955823},{"city":"lausanne","year":1832,"id":270,"job":"docteur droit","name":"Def\u00e9lice","job_desc":"docteur en droit","line":"place St Laurent 1","longitude":6.6305662422,"latitude":46.5223747951},{"city":"lausanne","year":1832,"id":271,"job":"institut.","name":"D\u00e9galier (Dlle.)","job_desc":"institutrice","line":"Martheray 41","longitude":6.638350752,"latitude":46.520391204},{"city":"lausanne","year":1832,"id":272,"job":"\u00e9picerie","name":"D\u00e9galier (Dlle. Anne)","job_desc":"\u00e9picerie","line":"mont\u00e9e de St Laurent 5","longitude":6.631605234,"latitude":46.5222606851},{"city":"lausanne","year":1832,"id":273,"job":"cordonni.","name":"D\u00e9get","job_desc":"cordonnier","line":"rue du Pr\u00e9 16","longitude":6.6351052365,"latitude":46.520981301},{"city":"lausanne","year":1832,"id":274,"job":"reli.","name":"D\u00e9glon","job_desc":"relieur","line":"Cit\u00e9-dessous 37","longitude":6.6361565881,"latitude":46.5223755824},{"city":"lausanne","year":1832,"id":275,"job":"gypsi.","name":"Degrandi (Jaq.)","job_desc":"gypsier","line":"Grand-Ch\u00eane 2","longitude":6.6318847284,"latitude":46.5196237176},{"city":"lausanne","year":1832,"id":278,"job":"doct.","name":"De la Harpe","job_desc":"docteur-m\u00e9decin","line":"mont\u00e9e de P\u00e9pinet 29","longitude":6.6320035967,"latitude":46.5202746586},{"city":"lausanne","year":1832,"id":278,"job":"m\u00e9decin","name":"De la Harpe","job_desc":"docteur-m\u00e9decin","line":"mont\u00e9e de P\u00e9pinet 29","longitude":6.6320035967,"latitude":46.5202746586},{"city":"lausanne","year":1832,"id":279,"job":"taill.","name":"Delapery (Dlles.)","job_desc":"tailleuses en dames","line":"rue Bourg 8","longitude":6.634478836,"latitude":46.5201577264},{"city":"lausanne","year":1832,"id":280,"job":"institut.","name":"Delapraz","job_desc":"instituteur","line":"rue St Pierre 23","longitude":6.6365116992,"latitude":46.5197268466},{"city":"lausanne","year":1832,"id":281,"job":"cocher","name":"Delaraye","job_desc":"voiturier","line":"rue de Martheray 59","longitude":6.6376296499,"latitude":46.5195843372},{"city":"lausanne","year":1832,"id":281,"job":"voituri.","name":"Delaraye","job_desc":"voiturier","line":"rue de Martheray 59","longitude":6.6376296499,"latitude":46.5195843372},{"city":"lausanne","year":1832,"id":282,"job":"blanchiss.","name":"Delaraye (Dlle.)","job_desc":"blanchisseuse","line":"Etraz 14","longitude":6.6385113989,"latitude":46.5193745497},{"city":"lausanne","year":1832,"id":283,"job":"voituri.","name":"Delavaux","job_desc":"voiturier","line":"Etraz 35","longitude":6.6384293341,"latitude":46.5192571819},{"city":"lausanne","year":1832,"id":283,"job":"cocher","name":"Delavaux","job_desc":"voiturier","line":"Etraz 35","longitude":6.6384293341,"latitude":46.5192571819},{"city":"lausanne","year":1832,"id":284,"job":"cabaret.","name":"Delavaux","job_desc":"cabaretier","line":"Etraz 42","longitude":6.6378145904,"latitude":46.5193451835},{"city":"lausanne","year":1832,"id":285,"job":"sage-femme","name":"Delavigne (Mme)","job_desc":"sage-femme","line":"rue du Pr\u00e9 11","longitude":6.6347219815,"latitude":46.5210363602},{"city":"lausanne","year":1832,"id":286,"job":"taill.","name":"Delavigne (F\u00e9lix)","job_desc":"marchand tailleur","line":"rue du St Jean 17","longitude":6.6328987089,"latitude":46.5211859234},{"city":"lausanne","year":1832,"id":286,"job":"march.","name":"Delavigne (F\u00e9lix)","job_desc":"marchand tailleur","line":"rue du St Jean 17","longitude":6.6328987089,"latitude":46.5211859234},{"city":"lausanne","year":1832,"id":287,"job":"cordonni.","name":"Delavigne","job_desc":"cordonnier","line":"rue du Pr\u00e9 11","longitude":6.6347219815,"latitude":46.5210363602},{"city":"lausanne","year":1832,"id":288,"job":"fripp.","name":"Del\u00e9devant","job_desc":"marchand frippier","line":"rue du Petit Jean 13","longitude":6.6330439313,"latitude":46.5210670463},{"city":"lausanne","year":1832,"id":288,"job":"march.","name":"Del\u00e9devant","job_desc":"marchand frippier","line":"rue du Petit Jean 13","longitude":6.6330439313,"latitude":46.5210670463},{"city":"lausanne","year":1832,"id":292,"job":"imprim.","name":"Delisle (Samuel)","job_desc":"imprimeur","line":"mont\u00e9e de St Fran\u00e7ois 24","longitude":6.6334510187,"latitude":46.5208043227},{"city":"lausanne","year":1832,"id":294,"job":"\u00e9picerie","name":"Delisle (Abram)","job_desc":"\u00e9picerie","line":"rue du Grand Jean 28","longitude":6.6321407709,"latitude":46.5212960212},{"city":"lausanne","year":1832,"id":296,"job":"boulang.","name":"Delp\u00e9che","job_desc":"boulanger","line":"Mont\u00e9e de St Laurent 6","longitude":6.6315288872,"latitude":46.5222646497},{"city":"lausanne","year":1832,"id":297,"job":"docteur droit","name":"DeMartines","job_desc":"docteur en droit","line":"rue de Bourg 19","longitude":6.635734701,"latitude":46.5200818736},{"city":"lausanne","year":1832,"id":298,"job":"avocat","name":"DeMartines","job_desc":"procureur-jur\u00e9","line":"Etraz 35","longitude":6.6384293341,"latitude":46.5192571819},{"city":"lausanne","year":1832,"id":298,"job":"notaire","name":"DeMartines","job_desc":"procureur-jur\u00e9","line":"Etraz 35","longitude":6.6384293341,"latitude":46.5192571819},{"city":"lausanne","year":1832,"id":298,"job":"procureur-jur\u00e9","name":"DeMartines","job_desc":"procureur-jur\u00e9","line":"Etraz 35","longitude":6.6384293341,"latitude":46.5192571819},{"city":"lausanne","year":1832,"id":299,"job":"serruri.","name":"DeMartines","job_desc":"serrurier","line":"Cheneau de Bourg 39","longitude":6.6365908718,"latitude":46.5206855694},{"city":"lausanne","year":1832,"id":301,"job":"coiff.","name":"D\u00e9n\u00e9r\u00e9az","job_desc":"coiffeur","line":"rue St Pierre 13","longitude":6.6368800511,"latitude":46.5196543835},{"city":"lausanne","year":1832,"id":302,"job":"trait.","name":"Deprez","job_desc":"traiteur","line":"rue de la Mercerie 13","longitude":6.634395977,"latitude":46.5215758527},{"city":"lausanne","year":1832,"id":303,"job":"doct.","name":"Descombes","job_desc":"docteur en m\u00e9decine","line":"place de Palud 12","longitude":6.6320976802,"latitude":46.5222678381},{"city":"lausanne","year":1832,"id":303,"job":"m\u00e9decin","name":"Descombes","job_desc":"docteur en m\u00e9decine","line":"place de Palud 12","longitude":6.6320976802,"latitude":46.5222678381},{"city":"lausanne","year":1832,"id":306,"job":"couturi.","name":"Despierre (Dlle. Hte)","job_desc":"courtepointi\u00e8re","line":"Escalier du march\u00e9 11","longitude":6.6338898653,"latitude":46.5223170571},{"city":"lausanne","year":1832,"id":306,"job":"courtepointi.","name":"Despierre (Dlle. Hte)","job_desc":"courtepointi\u00e8re","line":"Escalier du march\u00e9 11","longitude":6.6338898653,"latitude":46.5223170571},{"city":"lausanne","year":1832,"id":307,"job":"laiti.","name":"Despland","job_desc":"laitier","line":"Cit\u00e9-dessous 24","longitude":6.6360813173,"latitude":46.5215594304},{"city":"lausanne","year":1832,"id":310,"job":"march.","name":"Desponds (Dlle)","job_desc":"marchande","line":"Petit St Jean 10","longitude":6.6332830475,"latitude":46.5208990674},{"city":"lausanne","year":1832,"id":311,"job":"\u00e9picerie","name":"Dessauges (Fr.)","job_desc":"\u00e9picerie","line":"rue de la Halle 49","longitude":6.6335446982,"latitude":46.5210549863},{"city":"lausanne","year":1832,"id":314,"job":"cordonni.","name":"D\u00e9traz","job_desc":"cordonnier","line":"rue de Bourg 38","longitude":6.6341717284,"latitude":46.5200104975},{"city":"lausanne","year":1832,"id":315,"job":"march.","name":"D\u00e9vaud (Mme.)","job_desc":"marchande","line":"rue d'Etraz 4","longitude":6.6379072343,"latitude":46.5194653078},{"city":"lausanne","year":1832,"id":316,"job":"charron","name":"D\u00e9vaud","job_desc":"charron","line":"Halle de St Laurent 11","longitude":6.6288237324,"latitude":46.5232418821},{"city":"lausanne","year":1832,"id":317,"job":"charpenti.","name":"Devalonn\u00e9","job_desc":"charpentier","line":"au Maupas","longitude":6.626252,"latitude":46.524499},{"city":"lausanne","year":1832,"id":318,"job":"profess.","name":"Develey","job_desc":"professeur","line":"rue Madelaine 1","longitude":6.6329279126,"latitude":46.5221308836},{"city":"lausanne","year":1832,"id":319,"job":"fond.","name":"Develey (Ferdinand)","job_desc":"fondeur","line":"rue du Grand Jean 7","longitude":6.631077068,"latitude":46.521676584},{"city":"lausanne","year":1832,"id":320,"job":"peintre","name":"Devernois","job_desc":"peintre","line":"rue d'Etraz 7","longitude":6.6380944402,"latitude":46.5194448141},{"city":"lausanne","year":1832,"id":321,"job":"cordonni.","name":"Diemer (B\u00e9nedict)","job_desc":"cordonnier","line":"Cit\u00e9-devant 19","longitude":6.6356498901,"latitude":46.5239774677},{"city":"lausanne","year":1832,"id":322,"job":"cordonni.","name":"Diemer (George)","job_desc":"cordonnier","line":"Cit\u00e9-devant 16","longitude":6.6357740928,"latitude":46.5240855465},{"city":"lausanne","year":1832,"id":323,"job":"blanchiss.","name":"Dilly (Mme.)","job_desc":"blanchisseuse","line":"Grand St Jean 19","longitude":6.6321407709,"latitude":46.5212960212},{"city":"lausanne","year":1832,"id":324,"job":"boulang.","name":"Dienner","job_desc":"boulanger","line":"rue St Pierre 3","longitude":6.6364719888,"latitude":46.5199591076},{"city":"lausanne","year":1832,"id":325,"job":"tapissi.","name":"Dizerens","job_desc":"tapissier","line":"mont\u00e9e de St Fran\u00e7ois 16","longitude":6.6337228802,"latitude":46.520416287},{"city":"lausanne","year":1832,"id":326,"job":"couturi.","name":"Dizerens (Mme.)","job_desc":"courtepointi\u00e8re","line":"rue du Pr\u00e9 34","longitude":6.6352467923,"latitude":46.5208451756},{"city":"lausanne","year":1832,"id":326,"job":"courtepointi.","name":"Dizerens (Mme.)","job_desc":"courtepointi\u00e8re","line":"rue du Pr\u00e9 34","longitude":6.6352467923,"latitude":46.5208451756},{"city":"lausanne","year":1832,"id":327,"job":"confis.","name":"Dizerens (Ja.)","job_desc":"confiseur","line":"Place St Fran\u00e7ois 16","longitude":6.6332383593,"latitude":46.5200568892},{"city":"lausanne","year":1832,"id":328,"job":"taill.","name":"Dormont","job_desc":"tailleur","line":"rue del\u00e0 Mercerie 21","longitude":6.6336978801,"latitude":46.5217924024},{"city":"lausanne","year":1832,"id":329,"job":"libraire","name":"Doy","job_desc":"libraire","line":"Grand-Ch\u00eane 26","longitude":6.6315627092,"latitude":46.5198404431},{"city":"lausanne","year":1832,"id":331,"job":"\u00e9b\u00e9niste","name":"* Dubois","job_desc":"\u00e9b\u00e9niste","line":"Martheray 3","longitude":6.6379068394,"latitude":46.5202854637},{"city":"lausanne","year":1832,"id":332,"job":"cabaret.","name":"Dubrez","job_desc":"cabaretier","line":"Etraz 5","longitude":6.6379667998,"latitude":46.5194555489},{"city":"lausanne","year":1832,"id":334,"job":"\u00e9picerie","name":"Ducrot (veuve)","job_desc":"\u00e9picerie","line":"St Pierre 16","longitude":6.6369145939,"latitude":46.519533383},{"city":"lausanne","year":1832,"id":335,"job":"trait.","name":"Ducommun","job_desc":"traiteur","line":"rue de la Mercerie 4","longitude":6.6342257443,"latitude":46.5217028297},{"city":"lausanne","year":1832,"id":336,"job":"institut.","name":"Ducret","job_desc":"instituteur","line":"rue de la Mercerie 16","longitude":6.6341670928,"latitude":46.5216368805},{"city":"lausanne","year":1832,"id":337,"job":"institut.","name":"Dufour","job_desc":"instituteur","line":"rue de la Madelaine 7","longitude":6.6328995968,"latitude":46.5226638141},{"city":"lausanne","year":1832,"id":338,"job":"sage-femme","name":"Dufour (Mme.)","job_desc":"sage-femme","line":"mont\u00e9e de St Laurent 2","longitude":6.6318440697,"latitude":46.5222698038},{"city":"lausanne","year":1832,"id":339,"job":"jardini.","name":"Dumas","job_desc":"jardinier","line":"Grand St Jean 48","longitude":6.6305664964,"latitude":46.5219592946},{"city":"lausanne","year":1832,"id":340,"job":"sage-femme","name":"Dumas (Mme.)","job_desc":"sage-femme","line":"Mont\u00e9e St Laurent 4","longitude":6.6303568034,"latitude":46.5223775208},{"city":"lausanne","year":1832,"id":342,"job":"charron","name":"Dunki fils","job_desc":"charron","line":"Etraz 10","longitude":6.6382277535,"latitude":46.519427248},{"city":"lausanne","year":1832,"id":343,"job":"modiste","name":"Duperron (veuve)","job_desc":"modiste","line":"rue Mercerie 23","longitude":6.6334933148,"latitude":46.5218071671},{"city":"lausanne","year":1832,"id":344,"job":"taill.","name":"Duplan","job_desc":"tailleur","line":"Escaliers du march\u00e9 9","longitude":6.6338024256,"latitude":46.5222621239},{"city":"lausanne","year":1832,"id":345,"job":"march.","name":"Duperrut (Mme)","job_desc":"marchande","line":"place St Laurent 13","longitude":6.6305662422,"latitude":46.5223747951},{"city":"lausanne","year":1832,"id":346,"job":"cordonni.","name":"Duperrut","job_desc":"cordonnier","line":"Grand St Jean 48","longitude":6.6305664964,"latitude":46.5219592946},{"city":"lausanne","year":1832,"id":348,"job":"mar\u00e9chal","name":"Dupraz","job_desc":"mar\u00e9chal","line":"Martheray 20","longitude":6.640203508,"latitude":46.5213355718},{"city":"lausanne","year":1832,"id":350,"job":"cordonni.","name":"Dupuis","job_desc":"cordonnier","line":"Halle de St Laurent 74","longitude":6.6287966377,"latitude":46.5234251179},{"city":"lausanne","year":1832,"id":355,"job":"taill.","name":"Duret-Muller (Mme.)","job_desc":"tailleuse en dames","line":"place de la Palud 2","longitude":6.6330355021,"latitude":46.5217138487},{"city":"lausanne","year":1832,"id":356,"job":"g\u00e9om\u00e8tre","name":"Dusserre (L.)","job_desc":"commissaire-arpenteur","line":"rue du Pr\u00e9 32","longitude":6.6354685599,"latitude":46.520837575},{"city":"lausanne","year":1832,"id":356,"job":"commissaire-arpenteur","name":"Dusserre (L.)","job_desc":"commissaire-arpenteur","line":"rue du Pr\u00e9 32","longitude":6.6354685599,"latitude":46.520837575},{"city":"lausanne","year":1832,"id":358,"job":"boulang.","name":"Eberl\u00e9 p\u00e8re","job_desc":"boulanger","line":"Mont\u00e9e de la Palud 20","longitude":6.633472087,"latitude":46.5212221033},{"city":"lausanne","year":1832,"id":360,"job":"boulang.","name":"Eberl\u00e9","job_desc":"boulanger","line":"rue de Martheray 40","longitude":6.6384022271,"latitude":46.5204310514},{"city":"lausanne","year":1832,"id":361,"job":"tisser.","name":"Eichenberg","job_desc":"tisserand","line":"Martheray 39","longitude":6.6384440506,"latitude":46.5204720055},{"city":"lausanne","year":1832,"id":362,"job":"cordonni.","name":"Emery","job_desc":"cordonnier","line":"Cit\u00e9-dessous 32","longitude":6.6360895888,"latitude":46.5219680772},{"city":"lausanne","year":1832,"id":363,"job":"menuisi.","name":"Emery","job_desc":"menuisier","line":"rue de la Mercerie 6","longitude":6.6344074212,"latitude":46.5216526295},{"city":"lausanne","year":1832,"id":365,"job":"boulang.","name":"Emery","job_desc":"boulanger","line":"rue de Bourg 23","longitude":6.6359610615,"latitude":46.5200830106},{"city":"lausanne","year":1832,"id":366,"job":"ma\u00eetre","name":"Eppelin","job_desc":"ma\u00eetre de langue allemande","line":"rue du St Jean 42","longitude":6.6328987089,"latitude":46.5211859234},{"city":"lausanne","year":1832,"id":366,"job":"langue","name":"Eppelin","job_desc":"ma\u00eetre de langue allemande","line":"rue du St Jean 42","longitude":6.6328987089,"latitude":46.5211859234},{"city":"lausanne","year":1832,"id":367,"job":"trait.","name":"Ernst","job_desc":"traiteur","line":"Grand-Ch\u00eane 24","longitude":6.6314889201,"latitude":46.5198534994},{"city":"lausanne","year":1832,"id":368,"job":"langue","name":"Escher","job_desc":"ma\u00eetre de langue allemande","line":"rue du Pr\u00e9 47","longitude":6.634255369,"latitude":46.5209584282},{"city":"lausanne","year":1832,"id":368,"job":"ma\u00eetre","name":"Escher","job_desc":"ma\u00eetre de langue allemande","line":"rue du Pr\u00e9 47","longitude":6.634255369,"latitude":46.5209584282},{"city":"lausanne","year":1832,"id":370,"job":"voituri.","name":"Estoppey","job_desc":"voiturier","line":"place St Fran\u00e7ois 12","longitude":6.6328366105,"latitude":46.5199338999},{"city":"lausanne","year":1832,"id":370,"job":"cocher","name":"Estoppey","job_desc":"voiturier","line":"place St Fran\u00e7ois 12","longitude":6.6328366105,"latitude":46.5199338999},{"city":"lausanne","year":1832,"id":371,"job":"bijouti.","name":"Estrambin","job_desc":"bijoutier","line":"rue de Bourg 36","longitude":6.6346952025,"latitude":46.5200190443},{"city":"lausanne","year":1832,"id":372,"job":"draperie","name":"Fabre (Jean)","job_desc":"draperie","line":"mont\u00e9e de St Fran\u00e7ois 3","longitude":6.6338551371,"latitude":46.5206577037},{"city":"lausanne","year":1832,"id":373,"job":"couteli.","name":"* Faillettaz","job_desc":"coutelier","line":"Grand St Jean 38","longitude":6.6313681802,"latitude":46.5213834911},{"city":"lausanne","year":1832,"id":375,"job":"\u00e9picerie","name":"Faillettaz (L.)","job_desc":"\u00e9picerie","line":"Mont\u00e9e de St Fran\u00e7ois 6","longitude":6.6339396345,"latitude":46.5204567338},{"city":"lausanne","year":1832,"id":376,"job":"chapeli.","name":"Falconnier cadet","job_desc":"chapelier","line":"mont\u00e9e de St Fran\u00e7ois 3","longitude":6.6338551371,"latitude":46.5206577037},{"city":"lausanne","year":1832,"id":377,"job":"institut.","name":"Falconnier-Moser (Mme)","job_desc":"institutrice","line":"Etraz 39","longitude":6.6380892559,"latitude":46.519312472},{"city":"lausanne","year":1832,"id":379,"job":"march.","name":"Faraudo","job_desc":"marchand tailleur","line":"rue de Bourg 9","longitude":6.6346321268,"latitude":46.5201512685},{"city":"lausanne","year":1832,"id":379,"job":"taill.","name":"Faraudo","job_desc":"marchand tailleur","line":"rue de Bourg 9","longitude":6.6346321268,"latitude":46.5201512685},{"city":"lausanne","year":1832,"id":380,"job":"blanchiss.","name":"Fatio (Mme.)","job_desc":"blanchisseuse","line":"rue du Grand Jean 11","longitude":6.6314421735,"latitude":46.5214952283},{"city":"lausanne","year":1832,"id":385,"job":"mar\u00e9chal","name":"Favre","job_desc":"mar\u00e9chal","line":"Grand-Ch\u00eane 2","longitude":6.6318847284,"latitude":46.5196237176},{"city":"lausanne","year":1832,"id":388,"job":"march.","name":"Fiaux (veuve)","job_desc":"marchande","line":"place de la Palud 14","longitude":6.6323684471,"latitude":46.522317191},{"city":"lausanne","year":1832,"id":389,"job":"menuisi.","name":"Fidelle","job_desc":"menuisier","line":"place de St Laurent 9","longitude":6.6305662422,"latitude":46.5223747951},{"city":"lausanne","year":1832,"id":391,"job":"perruqui.","name":"Fillon","job_desc":"perruquier","line":"Halle de St Laurent 60","longitude":6.6287966377,"latitude":46.5234251179},{"city":"lausanne","year":1832,"id":392,"job":"libraire","name":"Fischer (Henri)","job_desc":"libraire","line":"mont\u00e9e de la Palud 3","longitude":6.6332642688,"latitude":46.5211807548},{"city":"lausanne","year":1832,"id":393,"job":"taill.","name":"Folker","job_desc":"tailleur","line":"rue du Pr\u00e9 5","longitude":6.6341337102,"latitude":46.521059908},{"city":"lausanne","year":1832,"id":394,"job":"march.","name":"Fontaine","job_desc":"marchand tailleur","line":"rue St Pierre 1","longitude":6.6363088928,"latitude":46.5200176606},{"city":"lausanne","year":1832,"id":394,"job":"taill.","name":"Fontaine","job_desc":"marchand tailleur","line":"rue St Pierre 1","longitude":6.6363088928,"latitude":46.5200176606},{"city":"lausanne","year":1832,"id":396,"job":"peintre","name":"Fontaine","job_desc":"peintre","line":"rue de Bourg 5","longitude":6.634258285,"latitude":46.5201555738},{"city":"lausanne","year":1832,"id":401,"job":"\u00e9b\u00e9niste","name":"* Forneret","job_desc":"\u00e9b\u00e9niste","line":"Cit\u00e9-derri\u00e8re 14","longitude":6.6363036638,"latitude":46.5241607143},{"city":"lausanne","year":1832,"id":402,"job":"cordonni.","name":"Fornerod","job_desc":"cordonnier","line":"place de la Palud 14","longitude":6.6323684471,"latitude":46.522317191},{"city":"lausanne","year":1832,"id":405,"job":"tourn.","name":"Fr\u00e9derich","job_desc":"tourneur","line":"rue de Bourg 37","longitude":6.6344588541,"latitude":46.5200226853},{"city":"lausanne","year":1832,"id":406,"job":"bijouti.","name":"Fritzsch\u00e9","job_desc":"bijoutier","line":"place de la Palud","longitude":6.6328504182,"latitude":46.5219863716},{"city":"lausanne","year":1832,"id":407,"job":"cordonni.","name":"Fritzsch\u00e9","job_desc":"cordonnier","line":"mont\u00e9e de St Laurent 16","longitude":6.6311384399,"latitude":46.5223846637},{"city":"lausanne","year":1832,"id":409,"job":"institut.","name":"Gardel","job_desc":"instituteur","line":"Cit\u00e9-dessous 28","longitude":6.6360399597,"latitude":46.5216448025},{"city":"lausanne","year":1832,"id":410,"job":"g\u00e9om\u00e8tre","name":"Gaudard","job_desc":"commissaire-arpenteur","line":"mont\u00e9e de Laurent 9","longitude":6.6311406219,"latitude":46.522269808},{"city":"lausanne","year":1832,"id":410,"job":"commissaire-arpenteur","name":"Gaudard","job_desc":"commissaire-arpenteur","line":"mont\u00e9e de Laurent 9","longitude":6.6311406219,"latitude":46.522269808},{"city":"lausanne","year":1832,"id":411,"job":"selli.","name":"Gaudin-Grussel (Louis)","job_desc":"sellier","line":"place de St Laurent 13","longitude":6.6305662422,"latitude":46.5223747951},{"city":"lausanne","year":1832,"id":412,"job":"selli.","name":"Gaudin (Fr.)","job_desc":"sellier","line":"Halle de St Laurent 12","longitude":6.6287510875,"latitude":46.5232735792},{"city":"lausanne","year":1832,"id":413,"job":"modiste","name":"Gaudin (Mme.)","job_desc":"modiste","line":"Cit\u00e9-dessous 31","longitude":6.636058157,"latitude":46.5219009182},{"city":"lausanne","year":1832,"id":414,"job":"taill.","name":"Gaudin","job_desc":"tailleur","line":"mont\u00e9e de St Laurent 17","longitude":6.6312698757,"latitude":46.5223799038},{"city":"lausanne","year":1832,"id":415,"job":"draperie","name":"Gauthier","job_desc":"draperie","line":"rue de Bourg 32","longitude":6.6352631442,"latitude":46.5199377284},{"city":"lausanne","year":1832,"id":416,"job":"bois","name":"Gaux","job_desc":"marchand de bois","line":"Mont\u00e9e de St Laurent 7","longitude":6.6314395759,"latitude":46.5222636586},{"city":"lausanne","year":1832,"id":416,"job":"march.","name":"Gaux","job_desc":"marchand de bois","line":"Mont\u00e9e de St Laurent 7","longitude":6.6314395759,"latitude":46.5222636586},{"city":"lausanne","year":1832,"id":417,"job":"ma\u00e7on.","name":"Gay","job_desc":"ma\u00e7on","line":"Chemin-Neuf 6","longitude":6.6338031466,"latitude":46.5243308038},{"city":"lausanne","year":1832,"id":422,"job":"jardini.","name":"Genoud","job_desc":"jardinier","line":"aux Toises","longitude":6.6407532309,"latitude":46.5187550346},{"city":"lausanne","year":1832,"id":423,"job":"sage-femme","name":"Gentil (Mme.)","job_desc":"sage-femme","line":"Grand St Jean 13","longitude":6.6316258065,"latitude":46.5214298212},{"city":"lausanne","year":1832,"id":429,"job":"\u00e9picerie","name":"Gilli\u00e9ron (successeur de R. Mellet)","job_desc":"\u00e9picerie et tabac","line":"rue de Bourg 19","longitude":6.635734701,"latitude":46.5200818736},{"city":"lausanne","year":1832,"id":429,"job":"tabac","name":"Gilli\u00e9ron (successeur de R. Mellet)","job_desc":"\u00e9picerie et tabac","line":"rue de Bourg 19","longitude":6.635734701,"latitude":46.5200818736},{"city":"lausanne","year":1832,"id":432,"job":"menuisi.","name":"Gindroz (Ab.)","job_desc":"menuisier","line":"Cit\u00e9-derri\u00e8re 15","longitude":6.6363214058,"latitude":46.5241118847},{"city":"lausanne","year":1832,"id":433,"job":"voituri.","name":"Giroud","job_desc":"voiturier","line":"rue St Pierre 5","longitude":6.6366024657,"latitude":46.5198888439},{"city":"lausanne","year":1832,"id":433,"job":"cocher","name":"Giroud","job_desc":"voiturier","line":"rue St Pierre 5","longitude":6.6366024657,"latitude":46.5198888439},{"city":"lausanne","year":1832,"id":434,"job":"modiste","name":"Giroud (Dlles.)","job_desc":"modistes","line":"rue St Pierre 19","longitude":6.636771016,"latitude":46.5195955823},{"city":"lausanne","year":1832,"id":435,"job":"jardini.","name":"Giron (p\u00e8re)","job_desc":"jardinier","line":"au Maupas","longitude":6.626252,"latitude":46.524499},{"city":"lausanne","year":1832,"id":441,"job":"institut.","name":"Golliez (Mmes.)","job_desc":"institutrices","line":"Martheray 34","longitude":6.6393480262,"latitude":46.5209735184},{"city":"lausanne","year":1832,"id":442,"job":"institut.","name":"Gonthier (M m e.)","job_desc":"institutrice","line":"Martheray 54","longitude":6.6378778242,"latitude":46.5198587968},{"city":"lausanne","year":1832,"id":443,"job":"cordonni.","name":"Gonthier (J.-M.)","job_desc":"cordonnier","line":"mont\u00e9e de St Francois 18","longitude":6.6337247171,"latitude":46.5204592617},{"city":"lausanne","year":1832,"id":444,"job":"cordonni.","name":"Gonthier (L.)","job_desc":"cordonnier","line":"Mont\u00e9e de la Palud 22","longitude":6.6335446982,"latitude":46.5210549863},{"city":"lausanne","year":1832,"id":445,"job":"taill.","name":"Gonthier (veuve)","job_desc":"tailleuse","line":"Cit\u00e9-devant 15","longitude":6.6358215821,"latitude":46.5241257618},{"city":"lausanne","year":1832,"id":446,"job":"cafeti.","name":"Gorgerat","job_desc":"caf\u00e9 et billard","line":"place St Fran\u00e7ois 17","longitude":6.6333695426,"latitude":46.5200647876},{"city":"lausanne","year":1832,"id":446,"job":"billard","name":"Gorgerat","job_desc":"caf\u00e9 et billard","line":"place St Fran\u00e7ois 17","longitude":6.6333695426,"latitude":46.5200647876},{"city":"lausanne","year":1832,"id":447,"job":"agent d'affaires","name":"Gougoltz (fils ain\u00e9)","job_desc":"agent d'affaires","line":"rue St Pierre 21","longitude":6.6366532802,"latitude":46.5196468575},{"city":"lausanne","year":1832,"id":448,"job":"taill.","name":"Gougoltz","job_desc":"tailleur","line":"rue de Bourg 36","longitude":6.6346952025,"latitude":46.5200190443},{"city":"lausanne","year":1832,"id":449,"job":"cabaret.","name":"Grand","job_desc":"cabaretier","line":"rue de St Etienne 3","longitude":6.6349030058,"latitude":46.5218842864},{"city":"lausanne","year":1832,"id":450,"job":"trait.","name":"Grandchamp","job_desc":"traiteur","line":"rue de Bourg 3","longitude":6.6341190719,"latitude":46.5201458869},{"city":"lausanne","year":1832,"id":451,"job":"cordonni.","name":"Grandchamp","job_desc":"cordonnier","line":"mont\u00e9e de la Palud 17","longitude":6.6334170027,"latitude":46.5213728528},{"city":"lausanne","year":1832,"id":454,"job":"taill.","name":"Greiloz (Dlles.)","job_desc":"tailleuses en dames","line":"rue du Grand St Jean 13","longitude":6.6316258065,"latitude":46.5214298212},{"city":"lausanne","year":1832,"id":456,"job":"mar\u00e9chal","name":"Greiner","job_desc":"mar\u00e9chal","line":"Cheneau de Bourg 11","longitude":6.6361022448,"latitude":46.5206003831},{"city":"lausanne","year":1832,"id":458,"job":"fonteni.","name":"Grillet","job_desc":"fontenier","line":"la Barre 44","longitude":6.6360380417,"latitude":46.5253176957},{"city":"lausanne","year":1832,"id":459,"job":"coiff.","name":"Grivel","job_desc":"coiffeur","line":"rue de Bourg 29","longitude":6.6359561047,"latitude":46.5199181562},{"city":"lausanne","year":1832,"id":460,"job":"march.","name":"Grivel (Mme.)","job_desc":"marchande","line":"rue St Pierre 26","longitude":6.6362677642,"latitude":46.5198566396},{"city":"lausanne","year":1832,"id":461,"job":"trait.","name":"Grobety (D.-B.)","job_desc":"traiteur","line":"Halle St Laurent 40","longitude":6.6305230975,"latitude":46.5225438458},{"city":"lausanne","year":1832,"id":462,"job":"tourn.","name":"Grobety","job_desc":"tourneur","line":"Halle de St Laurent 50","longitude":6.6282876016,"latitude":46.5235990246},{"city":"lausanne","year":1832,"id":463,"job":"charpenti.","name":"Grobety","job_desc":"charpentier","line":"Halle de St Laurent 64","longitude":6.6287966377,"latitude":46.5234251179},{"city":"lausanne","year":1832,"id":464,"job":"perruqui.","name":"Grosjean (Henri)","job_desc":"perruquier","line":"mont\u00e9e de St Fran\u00e7ois 9","longitude":6.6339194286,"latitude":46.5202949462},{"city":"lausanne","year":1832,"id":465,"job":"cordonni.","name":"Groux.","job_desc":"cordonnier","line":"rue du Grand St Jean 42","longitude":6.6307575826,"latitude":46.5216842396},{"city":"lausanne","year":1832,"id":468,"job":"ma\u00e7on.","name":"Gu\u00e9don","job_desc":"ma\u00e7on","line":"rue du Grand St Jean 2","longitude":6.6307740727,"latitude":46.5219329775},{"city":"lausanne","year":1832,"id":472,"job":"toilerie","name":"Guex (Mme. n\u00e9e Gaudard)","job_desc":"toilerie","line":"rue de Bourg 18","longitude":6.6356273037,"latitude":46.5200841475},{"city":"lausanne","year":1832,"id":473,"job":"taill.","name":"Guex (Mme.)","job_desc":"tailleuse","line":"Halle de St Laurent 25","longitude":6.6279080182,"latitude":46.523529854},{"city":"lausanne","year":1832,"id":475,"job":"cabaret.","name":"Guignard","job_desc":"cabaretier","line":"Cit\u00e9-devant 14","longitude":6.6359183871,"latitude":46.524162207},{"city":"lausanne","year":1832,"id":476,"job":"cocher","name":"Guignard","job_desc":"voiturier","line":"rue de Bourg 11","longitude":6.6348292591,"latitude":46.5201387199},{"city":"lausanne","year":1832,"id":476,"job":"voituri.","name":"Guignard","job_desc":"voiturier","line":"rue de Bourg 11","longitude":6.6348292591,"latitude":46.5201387199},{"city":"lausanne","year":1832,"id":477,"job":"\u00e9picerie","name":"Guignard","job_desc":"\u00e9picerie","line":"Grand St Jean 24","longitude":6.6321407709,"latitude":46.5212960212},{"city":"lausanne","year":1832,"id":478,"job":"ferblanti.","name":"Guillaume","job_desc":"ferblantier","line":"Cheneau de Bourg 45","longitude":6.6364753233,"latitude":46.5204839299},{"city":"lausanne","year":1832,"id":480,"job":"taill.","name":"Guyaz (Dites.)","job_desc":"tailleuses en dames","line":"rue de Bourg 11","longitude":6.6348292591,"latitude":46.5201387199},{"city":"lausanne","year":1832,"id":481,"job":"fond.","name":"Habegger","job_desc":"fondeur","line":"rue du Pr\u00e9 11","longitude":6.6347219815,"latitude":46.5210363602},{"city":"lausanne","year":1832,"id":482,"job":"courti.","name":"Haldy (J.-P.)","job_desc":"courtier","line":"mont\u00e9e de la Palud 1","longitude":6.6333443915,"latitude":46.5210067463},{"city":"lausanne","year":1832,"id":484,"job":"mar\u00e9chal","name":"Hansjacob","job_desc":"mar\u00e9chal","line":"rue de Martheray 51","longitude":6.6380097293,"latitude":46.5200071187},{"city":"lausanne","year":1832,"id":486,"job":"ma\u00e7on.","name":"Haury","job_desc":"ma\u00e7on","line":"rue Chaucrau 16","longitude":6.6312007906,"latitude":46.5231445323},{"city":"lausanne","year":1832,"id":487,"job":"taill.","name":"Hauser (Mine.)","job_desc":"tailleuse","line":"rue St Pierre 21","longitude":6.6366532802,"latitude":46.5196468575},{"city":"lausanne","year":1832,"id":488,"job":"taill.","name":"Hauser (Dlle.)","job_desc":"tailleuse en dames","line":"rue du Pr\u00e9 6","longitude":6.6342544816,"latitude":46.5210762442},{"city":"lausanne","year":1832,"id":491,"job":"cordonni.","name":"Heer","job_desc":"cordonnier","line":"rue du Pr\u00e9 43","longitude":6.6346724058,"latitude":46.5209527529},{"city":"lausanne","year":1832,"id":492,"job":"toilerie","name":"Heffly (Abram)","job_desc":"toilerie","line":"place de la Palud 7","longitude":6.6324365872,"latitude":46.522085232},{"city":"lausanne","year":1832,"id":493,"job":"menuisi.","name":"Helfrich","job_desc":"menuisier","line":"rue Chaucrau 16","longitude":6.6312007906,"latitude":46.5231445323},{"city":"lausanne","year":1832,"id":494,"job":"charpenti.","name":"Heller","job_desc":"charpentier","line":"Cheneau de Bourg 8","longitude":6.6363153199,"latitude":46.5204926654},{"city":"lausanne","year":1832,"id":495,"job":"jardini.","name":"Hemmeling","job_desc":"jardinier","line":"Martheray","longitude":6.6376245168,"latitude":46.5198245226},{"city":"lausanne","year":1832,"id":496,"job":"cordonni.","name":"Henchoz","job_desc":"cordonnier","line":"Escaliers du march\u00e9 14","longitude":6.6340324302,"latitude":46.5223994567},{"city":"lausanne","year":1832,"id":497,"job":"boulang.","name":"Hennin","job_desc":"boulanger","line":"rue St Pierre 22","longitude":6.6365951575,"latitude":46.5196806991},{"city":"lausanne","year":1832,"id":498,"job":"cabaret.","name":"Henny","job_desc":"cabaretier","line":"Grand-Ch\u00eane 26","longitude":6.6315627092,"latitude":46.5198404431},{"city":"lausanne","year":1832,"id":499,"job":"cordonni.","name":"Herter","job_desc":"cordonnier","line":"rue de Martheray 39","longitude":6.6384440506,"latitude":46.5204720055},{"city":"lausanne","year":1832,"id":500,"job":"boulang.","name":"Herzog","job_desc":"boulanger","line":"Petit St Jean 5","longitude":6.6329832133,"latitude":46.5209834876},{"city":"lausanne","year":1832,"id":501,"job":"gypsi.","name":"Heurter (Andr\u00e9)","job_desc":"gypsier","line":"rue d' Etraz 3","longitude":6.6378519234,"latitude":46.5194711632},{"city":"lausanne","year":1832,"id":502,"job":"tonneli.","name":"Heyvang p\u00e8re","job_desc":"tonnelier","line":"rue du Grand St Jean 5","longitude":6.6309536286,"latitude":46.5217708018},{"city":"lausanne","year":1832,"id":503,"job":"tonneli.","name":"Heyvang (Ch. fils)","job_desc":"tonnelier","line":"Martheray 3","longitude":6.6379068394,"latitude":46.5202854637},{"city":"lausanne","year":1832,"id":508,"job":"couteli.","name":"Hirtzel","job_desc":"coutelier","line":"rue St Pierre 5","longitude":6.6366024657,"latitude":46.5198888439},{"city":"lausanne","year":1832,"id":512,"job":"horlog.","name":"Hoffer (B\u00e9n\u00e9dict et fils)","job_desc":"horloger","line":"place de St Laurent 5","longitude":6.6305662422,"latitude":46.5223747951},{"city":"lausanne","year":1832,"id":513,"job":"horlog.","name":"Hoffer (Christ)","job_desc":"horloger","line":"rue de Chaucrau 36","longitude":6.6308668852,"latitude":46.5225998425},{"city":"lausanne","year":1832,"id":515,"job":"musici.","name":"Hoffmann (L.)","job_desc":"ma\u00eetre de musique","line":"mont\u00e9e de Laurent 5","longitude":6.631605234,"latitude":46.5222606851},{"city":"lausanne","year":1832,"id":515,"job":"ma\u00eetre","name":"Hoffmann (L.)","job_desc":"ma\u00eetre de musique","line":"mont\u00e9e de Laurent 5","longitude":6.631605234,"latitude":46.5222606851},{"city":"lausanne","year":1832,"id":516,"job":"musici.","name":"Hoffmann (Isaac)","job_desc":"ma\u00eetre de musique","line":"place la Palud 15","longitude":6.6324778298,"latitude":46.5222604352},{"city":"lausanne","year":1832,"id":516,"job":"ma\u00eetre","name":"Hoffmann (Isaac)","job_desc":"ma\u00eetre de musique","line":"place la Palud 15","longitude":6.6324778298,"latitude":46.5222604352},{"city":"lausanne","year":1832,"id":519,"job":"cordonni.","name":"Hoffmann","job_desc":"cordonnier","line":"rue du Pr\u00e9 17","longitude":6.6351954771,"latitude":46.5209656627},{"city":"lausanne","year":1832,"id":521,"job":"voituri.","name":"Holzer","job_desc":"voiturier","line":"place St Fran\u00e7ois 1","longitude":6.6338149556,"latitude":46.5199488528},{"city":"lausanne","year":1832,"id":521,"job":"cocher","name":"Holzer","job_desc":"voiturier","line":"place St Fran\u00e7ois 1","longitude":6.6338149556,"latitude":46.5199488528},{"city":"lausanne","year":1832,"id":522,"job":"taill.","name":"Horn (Martin)","job_desc":"tailleur","line":"Cit\u00e9-dessous 25","longitude":6.6360813173,"latitude":46.5215594304},{"city":"lausanne","year":1832,"id":523,"job":"cordonni.","name":"Hornung","job_desc":"cordonnier","line":"rue la Mercerie 4","longitude":6.6342257443,"latitude":46.5217028297},{"city":"lausanne","year":1832,"id":527,"job":"menuisi.","name":"Hubert","job_desc":"menuisier","line":"rue de Chaucrau 13","longitude":6.6311061832,"latitude":46.5231977045},{"city":"lausanne","year":1832,"id":528,"job":"taill.","name":"Hubmann","job_desc":"tailleur","line":"Cit\u00e9-derri\u00e8re 23","longitude":6.6361273508,"latitude":46.5233436997},{"city":"lausanne","year":1832,"id":529,"job":"quincaillerie","name":"Hugoni","job_desc":"quincaillerie","line":"rue du Grand St Jean 14","longitude":6.6316636133,"latitude":46.521417929},{"city":"lausanne","year":1832,"id":530,"job":"charpenti.","name":"Hugonnet (Ant.)","job_desc":"charpentier","line":"derri\u00e8re Halle St Laurent","longitude":6.6292099903,"latitude":46.5231260653},{"city":"lausanne","year":1832,"id":533,"job":"march.","name":"Humberset (Dlle.)","job_desc":"marchande","line":"rue de la Madeleine 1","longitude":6.6329279126,"latitude":46.5221308836},{"city":"lausanne","year":1832,"id":534,"job":"institut.","name":"Hunkel (Mlle.)","job_desc":"institutrice","line":"Place de la Palud 2","longitude":6.6330355021,"latitude":46.5217138487},{"city":"lausanne","year":1832,"id":538,"job":"cordonni.","name":"Jacob (Auguste)","job_desc":"cordonnier","line":"mont\u00e9e de St Fran\u00e7ois 9","longitude":6.6339194286,"latitude":46.5202949462},{"city":"lausanne","year":1832,"id":540,"job":"toilerie","name":"Jaggi-Schmidt","job_desc":"toileries","line":"rue Mercerie 18","longitude":6.6339353475,"latitude":46.5217353121},{"city":"lausanne","year":1832,"id":541,"job":"serruri.","name":"Jan (p\u00e8re)","job_desc":"serrurier","line":"Place de St Laurent 19","longitude":6.6305662422,"latitude":46.5223747951},{"city":"lausanne","year":1832,"id":542,"job":"serruri.","name":"Jan (fils)","job_desc":"serrurier","line":"rue du Grand St Jean 4","longitude":6.6309536286,"latitude":46.5217708018},{"city":"lausanne","year":1832,"id":543,"job":"couteli.","name":"Jan (fils)","job_desc":"coutelier","line":"place de St Laurent 18","longitude":6.6305662422,"latitude":46.5223747951},{"city":"lausanne","year":1832,"id":544,"job":"menuisi.","name":"Jaquerod","job_desc":"menuisier","line":"rue du Grand St Jean 46","longitude":6.6306477629,"latitude":46.521856527},{"city":"lausanne","year":1832,"id":545,"job":"modiste","name":"Jaquerod (Dlle.)","job_desc":"modiste","line":"Mont\u00e9e de P\u00e9pinet 7","longitude":6.6324069853,"latitude":46.5200027288},{"city":"lausanne","year":1832,"id":546,"job":"bijouti.","name":"* Jaques (Fr\u00e9d.)","job_desc":"bijoutier","line":"Mont\u00e9e du Pont 17","longitude":6.6337144308,"latitude":46.5209186203},{"city":"lausanne","year":1832,"id":549,"job":"ferblanti.","name":"Jaquillard","job_desc":"ferblantier","line":"Mont\u00e9e de St Laurent 17","longitude":6.6312698757,"latitude":46.5223799038},{"city":"lausanne","year":1832,"id":550,"job":"taill.","name":"Jaquin","job_desc":"tailleur","line":"rue du Grand St Jean 15","longitude":6.6317014201,"latitude":46.5214060367},{"city":"lausanne","year":1832,"id":551,"job":"boulang.","name":"Jaunin","job_desc":"boulanger","line":"rue de la Mercerie 22","longitude":6.6336077569,"latitude":46.5218002769},{"city":"lausanne","year":1832,"id":552,"job":"boulang.","name":"Jaunin","job_desc":"boulanger","line":"place St Laurent 38","longitude":6.6305662422,"latitude":46.5223747951},{"city":"lausanne","year":1832,"id":553,"job":"taill.","name":"Jeanmonod","job_desc":"tailleur","line":"rue du Pr\u00e9 14","longitude":6.6349822419,"latitude":46.5209978593},{"city":"lausanne","year":1832,"id":554,"job":"cordonni.","name":"Jlg","job_desc":"cordonnier","line":"place de St Laurent 10","longitude":6.6305662422,"latitude":46.5223747951},{"city":"lausanne","year":1832,"id":557,"job":"blanchiss.","name":"Joly (Mme.)","job_desc":"blanchisseuse","line":"Mercerie 2","longitude":6.6339982907,"latitude":46.5217992926},{"city":"lausanne","year":1832,"id":558,"job":"fond.","name":"Joseph","job_desc":"fondeur","line":"rue du Petit St Jean 15","longitude":6.6328987089,"latitude":46.5211859234},{"city":"lausanne","year":1832,"id":562,"job":"tonneli.","name":"Jung","job_desc":"tonnelier","line":"rue de la Mercerie 17","longitude":6.6339954296,"latitude":46.5217215317},{"city":"lausanne","year":1832,"id":563,"job":"march.","name":"Isly","job_desc":"marchand frippier","line":"Martheray 47","longitude":6.6381609374,"latitude":46.5201753639},{"city":"lausanne","year":1832,"id":563,"job":"fripp.","name":"Isly","job_desc":"marchand frippier","line":"Martheray 47","longitude":6.6381609374,"latitude":46.5201753639},{"city":"lausanne","year":1832,"id":564,"job":"sage-femme","name":"Isot (Mme.)","job_desc":"sage-femme","line":"m de la Palud 9","longitude":6.6332041767,"latitude":46.5213849127},{"city":"lausanne","year":1832,"id":565,"job":"taill.","name":"Izena (Dlle.)","job_desc":"tailleuse","line":"Place de St Laurent 26","longitude":6.6305662422,"latitude":46.5223747951},{"city":"lausanne","year":1832,"id":570,"job":"blanchiss.","name":"Kesler (Mme.)","job_desc":"blanchisseuse","line":"rue du Grand St Jean 31","longitude":6.6318865293,"latitude":46.5212036457},{"city":"lausanne","year":1832,"id":571,"job":"selli.","name":"Kesler (fils)","job_desc":"sellier","line":"rue St Pierre 2","longitude":6.6363968228,"latitude":46.5199952153},{"city":"lausanne","year":1832,"id":573,"job":"reli.","name":"Kienner","job_desc":"relieur","line":"rue du Petit St Jean 15","longitude":6.6328987089,"latitude":46.5211859234},{"city":"lausanne","year":1832,"id":575,"job":"architecte","name":"Kinkelin (Ch.)","job_desc":"architecte","line":"rue St Laurent 8","longitude":6.6300609365,"latitude":46.5227116087},{"city":"lausanne","year":1832,"id":576,"job":"tisser.","name":"Kirschmann","job_desc":"tisserand","line":"Cheneau de Bourg 40","longitude":6.6366575803,"latitude":46.52065934},{"city":"lausanne","year":1832,"id":577,"job":"taill.","name":"Knauss","job_desc":"tailleur","line":"Escaliers du march\u00e9 2","longitude":6.6335553131,"latitude":46.5219429873},{"city":"lausanne","year":1832,"id":578,"job":"tonneli.","name":"Knobel","job_desc":"tonnelier","line":"Cit\u00e9-dessous 35","longitude":6.6361441809,"latitude":46.522094427},{"city":"lausanne","year":1832,"id":579,"job":"charron","name":"Kock","job_desc":"charron","line":"Grand-Ch\u00eane 24","longitude":6.6314889201,"latitude":46.5198534994},{"city":"lausanne","year":1832,"id":581,"job":"taill.","name":"Kraer","job_desc":"tailleur","line":"rue du Pr\u00e9 2","longitude":6.6338684261,"latitude":46.5210229741},{"city":"lausanne","year":1832,"id":582,"job":"reli.","name":"Kr\u00e2er","job_desc":"relieur","line":"mont\u00e9e de St Fran\u00e7ois 12","longitude":6.6337228802,"latitude":46.520225428},{"city":"lausanne","year":1832,"id":584,"job":"cordonni.","name":"Krebs","job_desc":"cordonnier","line":"rue de Bourg 29","longitude":6.6359561047,"latitude":46.5199181562},{"city":"lausanne","year":1832,"id":585,"job":"cordonni.","name":"Krebs (Albert)","job_desc":"cordonnier","line":"Mercerie 9","longitude":6.6346062644,"latitude":46.5216162098},{"city":"lausanne","year":1832,"id":586,"job":"taill.","name":"Krauss","job_desc":"tailleur","line":"place de la Palud 7","longitude":6.6324365872,"latitude":46.522085232},{"city":"lausanne","year":1832,"id":587,"job":"ma\u00e7on.","name":"Krieg","job_desc":"ma\u00e7on","line":"au Chemin-Neuf 3","longitude":6.6332854634,"latitude":46.5239705184},{"city":"lausanne","year":1832,"id":588,"job":"blanchiss.","name":"Krieg (Mme.)","job_desc":"blanchisseuse","line":"rue de Bourg 30","longitude":6.6356719149,"latitude":46.5199261147},{"city":"lausanne","year":1832,"id":589,"job":"teinturi.","name":"Kubly","job_desc":"teinturier","line":"rue Chaucrau 16","longitude":6.6312007906,"latitude":46.5231445323},{"city":"lausanne","year":1832,"id":591,"job":"musici.","name":"Kung","job_desc":"musicien","line":"rue de Bourg 27","longitude":6.6362122059,"latitude":46.5200841475},{"city":"lausanne","year":1832,"id":592,"job":"confis.","name":"Ladermann","job_desc":"confiseur","line":"rue St Pierre 23","longitude":6.6365116992,"latitude":46.5197268466},{"city":"lausanne","year":1832,"id":594,"job":"chapeli.","name":"Lacombe (F)","job_desc":"chapelier","line":"mont\u00e9e de la Palud 1","longitude":6.6333443915,"latitude":46.5210067463},{"city":"lausanne","year":1832,"id":596,"job":"institut.","name":"Lacombe","job_desc":"instituteur","line":"Cit\u00e9-dessous 26","longitude":6.6360813173,"latitude":46.5215594304},{"city":"lausanne","year":1832,"id":597,"job":"libraire","name":"Lacombe","job_desc":"libraire","line":"mont\u00e9e de la Palud 11","longitude":6.6331785124,"latitude":46.5214499502},{"city":"lausanne","year":1832,"id":599,"job":"chapeli.","name":"Lagiez","job_desc":"chapelier","line":"rue St Pierre 17","longitude":6.6368338622,"latitude":46.5195557988},{"city":"lausanne","year":1832,"id":600,"job":"ma\u00eetre","name":"Lagoan\u00e8re","job_desc":"ma\u00eetre de musique","line":"Rue de Bourg 35","longitude":6.6349333147,"latitude":46.5199692839},{"city":"lausanne","year":1832,"id":600,"job":"musici.","name":"Lagoan\u00e8re","job_desc":"ma\u00eetre de musique","line":"Rue de Bourg 35","longitude":6.6349333147,"latitude":46.5199692839},{"city":"lausanne","year":1832,"id":602,"job":"ferblanti.","name":"Larpin","job_desc":"ferblantier","line":"rue St Pierre 11","longitude":6.6368800511,"latitude":46.5196543835},{"city":"lausanne","year":1832,"id":603,"job":"ferblanti.","name":"Larpin (H.)","job_desc":"ferblantier","line":"Mercerie 4","longitude":6.6342257443,"latitude":46.5217028297},{"city":"lausanne","year":1832,"id":605,"job":"tonneli.","name":"Larpin","job_desc":"tonnelier","line":"Cit\u00e9-derri\u00e8re 19","longitude":6.6362780364,"latitude":46.5237293851},{"city":"lausanne","year":1832,"id":606,"job":"horlog.","name":"Lassieur","job_desc":"horloger","line":"place de St Laurent 26","longitude":6.6305662422,"latitude":46.5223747951},{"city":"lausanne","year":1832,"id":607,"job":"voituri.","name":"Lassieur","job_desc":"voiturier","line":"Halle de St Laurent 64","longitude":6.6287966377,"latitude":46.5234251179},{"city":"lausanne","year":1832,"id":607,"job":"cocher","name":"Lassieur","job_desc":"voiturier","line":"Halle de St Laurent 64","longitude":6.6287966377,"latitude":46.5234251179},{"city":"lausanne","year":1832,"id":608,"job":"fripp.","name":"Lassieur","job_desc":"marchand frippier","line":"mont\u00e9e de St Laurent 1","longitude":6.6319497548,"latitude":46.5222810702},{"city":"lausanne","year":1832,"id":608,"job":"march.","name":"Lassieur","job_desc":"marchand frippier","line":"mont\u00e9e de St Laurent 1","longitude":6.6319497548,"latitude":46.5222810702},{"city":"lausanne","year":1832,"id":609,"job":"march.","name":"Laub","job_desc":"marchand frippier","line":"Etraz 8","longitude":6.6381384052,"latitude":46.5194340792},{"city":"lausanne","year":1832,"id":609,"job":"fripp.","name":"Laub","job_desc":"marchand frippier","line":"Etraz 8","longitude":6.6381384052,"latitude":46.5194340792},{"city":"lausanne","year":1832,"id":610,"job":"cabaret.","name":"Lavanchy","job_desc":"cabaretier","line":"Place de St Laurent 26","longitude":6.6305662422,"latitude":46.5223747951},{"city":"lausanne","year":1832,"id":612,"job":"agent d'affaires","name":"Leblanc","job_desc":"agent d'affaires","line":"place de la Palud 17","longitude":6.6325943851,"latitude":46.522198744},{"city":"lausanne","year":1832,"id":613,"job":"boulang.","name":"Leblanc","job_desc":"boulanger","line":"place de la Palud 13","longitude":6.6322016834,"latitude":46.5224060261},{"city":"lausanne","year":1832,"id":616,"job":"cordonni.","name":"Lecoq","job_desc":"cordonnier","line":"Cit\u00e9-derri\u00e8re 6","longitude":6.6360217626,"latitude":46.5235367779},{"city":"lausanne","year":1832,"id":617,"job":"agent d'affaires","name":"Lederrey","job_desc":"agent d'affaires","line":"Mercerie 21","longitude":6.6336978801,"latitude":46.5217924024},{"city":"lausanne","year":1832,"id":618,"job":"boulang.","name":"Lederrey","job_desc":"boulanger","line":"Grand St Jean 34","longitude":6.6316646935,"latitude":46.5212610754},{"city":"lausanne","year":1832,"id":619,"job":"cabaret.","name":"L\u00e9ger","job_desc":"cabaretier","line":"rue de la Mercerie 8","longitude":6.6345390296,"latitude":46.521626053},{"city":"lausanne","year":1832,"id":620,"job":"taill.","name":"L\u00e9geret","job_desc":"tailleur","line":"rue St Pierre 15","longitude":6.6370526877,"latitude":46.5194745728},{"city":"lausanne","year":1832,"id":621,"job":"blanchiss.","name":"Lenoir (veuve)","job_desc":"blanchisseuse","line":"Petit St Jean 4","longitude":6.6329832133,"latitude":46.5209834876},{"city":"lausanne","year":1832,"id":622,"job":"coiff.","name":"Lenoir","job_desc":"coiffeur","line":"rue de Bourg 31","longitude":6.6354405976,"latitude":46.5199397579},{"city":"lausanne","year":1832,"id":623,"job":"tabac","name":"Leresche (Jules)","job_desc":"\u00e9picerie et tabac","line":"place de Palud 15","longitude":6.6324778298,"latitude":46.5222604352},{"city":"lausanne","year":1832,"id":623,"job":"\u00e9picerie","name":"Leresche (Jules)","job_desc":"\u00e9picerie et tabac","line":"place de Palud 15","longitude":6.6324778298,"latitude":46.5222604352},{"city":"lausanne","year":1832,"id":624,"job":"draperie","name":"Leuthold","job_desc":"draperie","line":"place de la Palud 1","longitude":6.6331165425,"latitude":46.5216373093},{"city":"lausanne","year":1832,"id":627,"job":"meuni.","name":"Liechty","job_desc":"meunier","line":"Petit St Jean 7","longitude":6.633094634,"latitude":46.5209455847},{"city":"lausanne","year":1832,"id":628,"job":"menuisi.","name":"Liegme","job_desc":"menuisier et \u00e9b\u00e9niste","line":"Etraz 15","longitude":6.6385979107,"latitude":46.5193667425},{"city":"lausanne","year":1832,"id":628,"job":"\u00e9b\u00e9niste","name":"Liegme","job_desc":"menuisier et \u00e9b\u00e9niste","line":"Etraz 15","longitude":6.6385979107,"latitude":46.5193667425},{"city":"lausanne","year":1832,"id":629,"job":"ma\u00eetre","name":"Lochmann","job_desc":"ma\u00eetre de langue allemande","line":"Che\u00admin Neuf 5","longitude":6.6338031466,"latitude":46.5243308038},{"city":"lausanne","year":1832,"id":629,"job":"langue","name":"Lochmann","job_desc":"ma\u00eetre de langue allemande","line":"Che\u00admin Neuf 5","longitude":6.6338031466,"latitude":46.5243308038},{"city":"lausanne","year":1832,"id":630,"job":"math\u00e9matici.","name":"Lochmann","job_desc":"math\u00e9maticien","line":"Mont\u00e9e de la Palud 11","longitude":6.6331785124,"latitude":46.5214499502},{"city":"lausanne","year":1832,"id":632,"job":"ferblanti.","name":"Lo\u00ebver","job_desc":"ferblantier","line":"rue de Bourg 15","longitude":6.6351084921,"latitude":46.5200989275},{"city":"lausanne","year":1832,"id":634,"job":"boulang.","name":"Loire","job_desc":"boulanger","line":"Cheneau de Bourg 19","longitude":6.6362389268,"latitude":46.5206577703},{"city":"lausanne","year":1832,"id":635,"job":"courtepointi.","name":"Loire (Mme.)","job_desc":"courtepointi\u00e8re","line":"Cheneau de 22","longitude":6.6362071261,"latitude":46.5201787336},{"city":"lausanne","year":1832,"id":635,"job":"couturi.","name":"Loire (Mme.)","job_desc":"courtepointi\u00e8re","line":"Cheneau de 22","longitude":6.6362071261,"latitude":46.5201787336},{"city":"lausanne","year":1832,"id":636,"job":"commissionnaire","name":"Longchamp (Louis)","job_desc":"commissionnaire","line":"place de Fran\u00e7ois 17","longitude":6.6333695426,"latitude":46.5200647876},{"city":"lausanne","year":1832,"id":637,"job":"trait.","name":"Longchamp","job_desc":"traiteur","line":"rue de Bourg 15","longitude":6.6351084921,"latitude":46.5200989275},{"city":"lausanne","year":1832,"id":639,"job":"cocher","name":"Louder","job_desc":"voiturier","line":"Martheray 33","longitude":6.6395555878,"latitude":46.5210511686},{"city":"lausanne","year":1832,"id":639,"job":"voituri.","name":"Louder","job_desc":"voiturier","line":"Martheray 33","longitude":6.6395555878,"latitude":46.5210511686},{"city":"lausanne","year":1832,"id":640,"job":"charron","name":"Loup","job_desc":"charron","line":"Halle de St Laurent 7","longitude":6.6291125399,"latitude":46.5231480095},{"city":"lausanne","year":1832,"id":642,"job":"\u00e9picerie","name":"Luard (Dlle. Louise)","job_desc":"\u00e9picerie","line":"Grand-Ch\u00eane 28","longitude":6.6315627092,"latitude":46.5198404431},{"city":"lausanne","year":1832,"id":644,"job":"voituri.","name":"Ludin","job_desc":"voiturier","line":"rue de Chaucrau 13","longitude":6.6311061832,"latitude":46.5231977045},{"city":"lausanne","year":1832,"id":644,"job":"cocher","name":"Ludin","job_desc":"voiturier","line":"rue de Chaucrau 13","longitude":6.6311061832,"latitude":46.5231977045},{"city":"lausanne","year":1832,"id":646,"job":"\u00e9picerie","name":"Lugenbuhl (Ab. fils)","job_desc":"\u00e9picerie et tabac","line":"mont\u00e9e de la Palud 1","longitude":6.6333443915,"latitude":46.5210067463},{"city":"lausanne","year":1832,"id":646,"job":"tabac","name":"Lugenbuhl (Ab. fils)","job_desc":"\u00e9picerie et tabac","line":"mont\u00e9e de la Palud 1","longitude":6.6333443915,"latitude":46.5210067463},{"city":"lausanne","year":1832,"id":647,"job":"tabac","name":"Lugenbuhl (p\u00e8re et fils)","job_desc":"\u00e9picerie et tabac","line":"rue St Pierre 15","longitude":6.6370526877,"latitude":46.5194745728},{"city":"lausanne","year":1832,"id":647,"job":"\u00e9picerie","name":"Lugenbuhl (p\u00e8re et fils)","job_desc":"\u00e9picerie et tabac","line":"rue St Pierre 15","longitude":6.6370526877,"latitude":46.5194745728},{"city":"lausanne","year":1832,"id":650,"job":"ma\u00e7on.","name":"Maget (L.)","job_desc":"ma\u00e7on","line":"rue du Pr\u00e9 3","longitude":6.6339778429,"latitude":46.5210329178},{"city":"lausanne","year":1832,"id":651,"job":"ma\u00e7on.","name":"Maget (G.)","job_desc":"ma\u00e7on","line":"Cheneau de Bourg 20","longitude":6.6362389268,"latitude":46.5206577703},{"city":"lausanne","year":1832,"id":652,"job":"gypsi.","name":"Maget (S.)","job_desc":"gypsier","line":"Halle de St Laurent 71","longitude":6.6287966377,"latitude":46.5234251179},{"city":"lausanne","year":1832,"id":653,"job":"ma\u00e7on.","name":"Maget (A.)","job_desc":"ma\u00e7on","line":"Halle de St Laurent 74","longitude":6.6287966377,"latitude":46.5234251179},{"city":"lausanne","year":1832,"id":654,"job":"institut.","name":"Maillard","job_desc":"instituteur","line":"Cheneau de Bourg 26","longitude":6.6362389268,"latitude":46.5206577703},{"city":"lausanne","year":1832,"id":655,"job":"march.","name":"Mamin (Dlle.)","job_desc":"marchande","line":"Halle de St Laurent 64","longitude":6.6287966377,"latitude":46.5234251179},{"city":"lausanne","year":1832,"id":656,"job":"docteur droit","name":"Mandrot","job_desc":"docteur en droit","line":"Chaucrau 23","longitude":6.6312007906,"latitude":46.5231445323},{"city":"lausanne","year":1832,"id":657,"job":"confis.","name":"Manuel","job_desc":"confiseur","line":"rue de Bourg 9-","longitude":6.6346321268,"latitude":46.5201512685},{"city":"lausanne","year":1832,"id":658,"job":"institut.","name":"Marcel","job_desc":"instituteur","line":"Escaliers du march\u00e9 14","longitude":6.6340324302,"latitude":46.5223994567},{"city":"lausanne","year":1832,"id":661,"job":"cafeti.","name":"Marguerat","job_desc":"caf\u00e9 et billard","line":"mont\u00e9e de la Palud 21","longitude":6.633502133,"latitude":46.5211652491},{"city":"lausanne","year":1832,"id":661,"job":"billard","name":"Marguerat","job_desc":"caf\u00e9 et billard","line":"mont\u00e9e de la Palud 21","longitude":6.633502133,"latitude":46.5211652491},{"city":"lausanne","year":1832,"id":662,"job":"tapissi.","name":"Marguet","job_desc":"tapissier","line":"Grand-Ch\u00eane 27","longitude":6.6315627092,"latitude":46.5198404431},{"city":"lausanne","year":1832,"id":663,"job":"libraire","name":"Markham","job_desc":"libraire","line":"St Pierre 22","longitude":6.6365951575,"latitude":46.5196806991},{"city":"lausanne","year":1832,"id":664,"job":"fond.","name":"Marquis","job_desc":"fondeur","line":"Grand St Jean 2","longitude":6.6307740727,"latitude":46.5219329775},{"city":"lausanne","year":1832,"id":665,"job":"march.","name":"Marthy","job_desc":"marchand de bois","line":"Place St Laurent 8","longitude":6.6305662422,"latitude":46.5223747951},{"city":"lausanne","year":1832,"id":665,"job":"bois","name":"Marthy","job_desc":"marchand de bois","line":"Place St Laurent 8","longitude":6.6305662422,"latitude":46.5223747951},{"city":"lausanne","year":1832,"id":667,"job":"boulang.","name":"Martin","job_desc":"boulanger","line":"Cit\u00e9 Devant 15","longitude":6.6358215821,"latitude":46.5241257618},{"city":"lausanne","year":1832,"id":668,"job":"taill.","name":"Martin (Mme.)","job_desc":"tailleuse","line":"Martheray 20","longitude":6.640203508,"latitude":46.5213355718},{"city":"lausanne","year":1832,"id":669,"job":"blanchiss.","name":"Martin (Mme.)","job_desc":"blanchisseuse","line":"rue du Grand Jean 12","longitude":6.6315307494,"latitude":46.5214640113},{"city":"lausanne","year":1832,"id":670,"job":"cordonni.","name":"Martin","job_desc":"cordonnier","line":"Petit St Jean 12","longitude":6.6330990157,"latitude":46.5210420649},{"city":"lausanne","year":1832,"id":672,"job":"quincaillerie","name":"Masmejan","job_desc":"quincaillerie","line":"Mont\u00e9e St Fran\u00e7ois 19","longitude":6.6337335762,"latitude":46.5200839694},{"city":"lausanne","year":1832,"id":674,"job":"toilerie","name":"Mattenberger (le jeune)","job_desc":"toilerie","line":"rue du Pr\u00e9 47","longitude":6.634255369,"latitude":46.5209584282},{"city":"lausanne","year":1832,"id":676,"job":"peintre","name":"* Matthey","job_desc":"peintre","line":"mont\u00e9e de St Laurent 13","longitude":6.6312888993,"latitude":46.5225798173},{"city":"lausanne","year":1832,"id":678,"job":"confis.","name":"Matthey","job_desc":"confiseur","line":"mont\u00e9e de St Fran\u00e7ois 2","longitude":6.6338092145,"latitude":46.5207322772},{"city":"lausanne","year":1832,"id":679,"job":"boulang.","name":"Matthey","job_desc":"boulanger","line":"rue du Pr\u00e9 38","longitude":6.6350114298,"latitude":46.5209036415},{"city":"lausanne","year":1832,"id":680,"job":"march.","name":"Matthey et Gatabin","job_desc":"marchands","line":"rue de la Madeleine 7","longitude":6.6328995968,"latitude":46.5226638141},{"city":"lausanne","year":1832,"id":681,"job":"voituri.","name":"Mathys","job_desc":"voiturier","line":"Grand Ch\u00eane 23","longitude":6.6313961566,"latitude":46.5198520487},{"city":"lausanne","year":1832,"id":681,"job":"cocher","name":"Mathys","job_desc":"voiturier","line":"Grand Ch\u00eane 23","longitude":6.6313961566,"latitude":46.5198520487},{"city":"lausanne","year":1832,"id":682,"job":"ma\u00e7on.","name":"Mauerhoffer","job_desc":"ma\u00e7on","line":"Cit\u00e9-derri\u00e8re 3","longitude":6.6360217626,"latitude":46.5235367779},{"city":"lausanne","year":1832,"id":683,"job":"taill.","name":"Manerhoffer (Mme.)","job_desc":"tailleuse","line":"Cit\u00e9-derri\u00e8re 3","longitude":6.6360217626,"latitude":46.5235367779},{"city":"lausanne","year":1832,"id":684,"job":"menuisi.","name":"Maurel","job_desc":"menuisier","line":"Cit\u00e9-derri\u00e8re 32","longitude":6.6355295957,"latitude":46.5230116929},{"city":"lausanne","year":1832,"id":685,"job":"charcuti.","name":"Maurer (Bernard)","job_desc":"charcutier","line":"mont\u00e9e de la Palud 8","longitude":6.6331979172,"latitude":46.52134701},{"city":"lausanne","year":1832,"id":686,"job":"selli.","name":"Maurer (Jos)","job_desc":"sellier","line":"rue St Pierre 12","longitude":6.6368800511,"latitude":46.5196543835},{"city":"lausanne","year":1832,"id":687,"job":"gypsi.","name":"May","job_desc":"gypsier","line":"rue St Pierre 14-","longitude":6.6368800511,"latitude":46.5196543835},{"city":"lausanne","year":1832,"id":688,"job":"commissaire-arpenteur","name":"Mayor","job_desc":"commissaire-arpenteur","line":"Cit\u00e9-dessous 34","longitude":6.6360515398,"latitude":46.5221194693},{"city":"lausanne","year":1832,"id":688,"job":"g\u00e9om\u00e8tre","name":"Mayor","job_desc":"commissaire-arpenteur","line":"Cit\u00e9-dessous 34","longitude":6.6360515398,"latitude":46.5221194693},{"city":"lausanne","year":1832,"id":689,"job":"\u00e9picerie","name":"Mayor-Gloor","job_desc":"\u00e9picerie et tabac","line":"place de St Laurent 32","longitude":6.6305662422,"latitude":46.5223747951},{"city":"lausanne","year":1832,"id":689,"job":"tabac","name":"Mayor-Gloor","job_desc":"\u00e9picerie et tabac","line":"place de St Laurent 32","longitude":6.6305662422,"latitude":46.5223747951},{"city":"lausanne","year":1832,"id":690,"job":"m\u00e9decin","name":"Mayor (p\u00e8re)","job_desc":"m\u00e9decin-chirurgien","line":"derri\u00e8re Bourg","longitude":6.6339383963,"latitude":46.520132739},{"city":"lausanne","year":1832,"id":690,"job":"chirurgien","name":"Mayor (p\u00e8re)","job_desc":"m\u00e9decin-chirurgien","line":"derri\u00e8re Bourg","longitude":6.6339383963,"latitude":46.520132739},{"city":"lausanne","year":1832,"id":691,"job":"chirurgien","name":"Mayor (fils)","job_desc":"m\u00e9decin-chirurgien","line":"derri\u00e8re Bourg","longitude":6.6339383963,"latitude":46.520132739},{"city":"lausanne","year":1832,"id":691,"job":"m\u00e9decin","name":"Mayor (fils)","job_desc":"m\u00e9decin-chirurgien","line":"derri\u00e8re Bourg","longitude":6.6339383963,"latitude":46.520132739},{"city":"lausanne","year":1832,"id":693,"job":"ferblanti.","name":"Mayor (Albert)","job_desc":"marchand de fer","line":"mont\u00e9e de St Laurent 18","longitude":6.6314272528,"latitude":46.522372764},{"city":"lausanne","year":1832,"id":693,"job":"march.","name":"Mayor (Albert)","job_desc":"marchand de fer","line":"mont\u00e9e de St Laurent 18","longitude":6.6314272528,"latitude":46.522372764},{"city":"lausanne","year":1832,"id":694,"job":"serruri.","name":"Mayor","job_desc":"serrurier","line":"rue d'Etraz 2","longitude":6.6377682481,"latitude":46.5194945846},{"city":"lausanne","year":1832,"id":696,"job":"modiste","name":"Mayor (Dlle.)","job_desc":"modiste","line":"rue du Grand St Jean 47","longitude":6.6305972459,"latitude":46.5219063995},{"city":"lausanne","year":1832,"id":697,"job":"menuisi.","name":"Mayor","job_desc":"menuisier","line":"Grand St Jean 2","longitude":6.6307740727,"latitude":46.5219329775},{"city":"lausanne","year":1832,"id":699,"job":"reli.","name":"Meillard","job_desc":"relieur","line":"rue de Bourg 25","longitude":6.6360899382,"latitude":46.5200841475},{"city":"lausanne","year":1832,"id":701,"job":"tann.","name":"Mercier (J.J.)","job_desc":"tanneur","line":"rue du Pr\u00e9 29","longitude":6.6357341017,"latitude":46.5209120264},{"city":"lausanne","year":1832,"id":702,"job":"tann.","name":"Mercier (Bernard)","job_desc":"tanneur","line":"rue du Pr\u00e9 8","longitude":6.6344761281,"latitude":46.5210503974},{"city":"lausanne","year":1832,"id":703,"job":"ferblanti.","name":"Meyer","job_desc":"ferblantier","line":"mont\u00e9e St Fran\u00e7ois 16","longitude":6.6332383593,"latitude":46.5200568892},{"city":"lausanne","year":1832,"id":704,"job":"cordonni.","name":"Meyer (S.)","job_desc":"cordonnier","line":"St Etienne 1","longitude":6.6349046621,"latitude":46.5216005},{"city":"lausanne","year":1832,"id":705,"job":"cordonni.","name":"Meyer","job_desc":"cordonnier","line":"rue St Pierre 21","longitude":6.6366532802,"latitude":46.5196468575},{"city":"lausanne","year":1832,"id":706,"job":"teinturi.","name":"Meyer","job_desc":"teinturier","line":"place de la Palud 7","longitude":6.6324365872,"latitude":46.522085232},{"city":"lausanne","year":1832,"id":707,"job":"notaire","name":"Meylan","job_desc":"notaire","line":"rue du Grand St Jean 43","longitude":6.6307048692,"latitude":46.521732601},{"city":"lausanne","year":1832,"id":708,"job":"trait.","name":"Meylan","job_desc":"traiteur","line":"rue Chaucrau 23","longitude":6.6312007906,"latitude":46.5231445323},{"city":"lausanne","year":1832,"id":709,"job":"charpenti.","name":"Meystre","job_desc":"charpentier","line":"derri\u00e8re la Halle de St Laurent","longitude":6.6292099903,"latitude":46.5231260653},{"city":"lausanne","year":1832,"id":710,"job":"couturi.","name":"Meystre (Mme.)","job_desc":"courtepointi\u00e8re","line":"rue du Grand St Jean 32","longitude":6.6317964771,"latitude":46.5212474736},{"city":"lausanne","year":1832,"id":710,"job":"courtepointi.","name":"Meystre (Mme.)","job_desc":"courtepointi\u00e8re","line":"rue du Grand St Jean 32","longitude":6.6317964771,"latitude":46.5212474736},{"city":"lausanne","year":1832,"id":711,"job":"menuisi.","name":"Meystre","job_desc":"menuisier","line":"au Chemin Neuf 3b","longitude":6.6332854634,"latitude":46.5239705184},{"city":"lausanne","year":1832,"id":712,"job":"chapeli.","name":"Michaud","job_desc":"chapelier","line":"mont\u00e9e de la Palud 4","longitude":6.6332467419,"latitude":46.5212117662},{"city":"lausanne","year":1832,"id":713,"job":"libraire","name":"Michoud","job_desc":"libraire","line":"place de St Laurent 7","longitude":6.6305662422,"latitude":46.5223747951},{"city":"lausanne","year":1832,"id":714,"job":"boulang.","name":"Michoud","job_desc":"boulanger","line":"Halle de St Laurent 57","longitude":6.6287966377,"latitude":46.5234251179},{"city":"lausanne","year":1832,"id":715,"job":"coiff.","name":"Michoud","job_desc":"coiffeur","line":"mont\u00e9e de St Laurent 15","longitude":6.6310536984,"latitude":46.5223882336},{"city":"lausanne","year":1832,"id":716,"job":"cordonni.","name":"Michoud","job_desc":"cordonnier","line":"rue de St Etienne 8","longitude":6.6352276517,"latitude":46.5218204631},{"city":"lausanne","year":1832,"id":718,"job":"\u00e9picerie","name":"Mi\u00e9ville (E.-D.)","job_desc":"\u00e9picerie","line":"place de la Palud 11","longitude":6.6322016834,"latitude":46.5222419278},{"city":"lausanne","year":1832,"id":719,"job":"chapeli.","name":"Mi\u00e9ville (fils)","job_desc":"chapelier","line":"Mont\u00e9e de St Fran\u00e7ois 1","longitude":6.6337577813,"latitude":46.5208131704},{"city":"lausanne","year":1832,"id":720,"job":"modiste","name":"Mi\u00e9ville (Dlles.)","job_desc":"modistes","line":"Chemin de Bourg 24","longitude":6.6362389268,"latitude":46.5206577703},{"city":"lausanne","year":1832,"id":721,"job":"tapissi.","name":"Milliquet","job_desc":"tapissier","line":"Cheneau de Bourg 6","longitude":6.6362848806,"latitude":46.5203809579},{"city":"lausanne","year":1832,"id":722,"job":"cordonni.","name":"Mockly","job_desc":"cordonnier","line":"Petit-Ch\u00eane 2","longitude":6.6319053258,"latitude":46.519389721},{"city":"lausanne","year":1832,"id":723,"job":"selli.","name":"Moinnat","job_desc":"sellier","line":"rue de la Madeleine 8","longitude":6.6329985449,"latitude":46.5226539441},{"city":"lausanne","year":1832,"id":725,"job":"boulang.","name":"Monnard","job_desc":"boulanger","line":"Etraz 41","longitude":6.6378608082,"latitude":46.5193406403},{"city":"lausanne","year":1832,"id":727,"job":"billard","name":"Morand","job_desc":"caf\u00e9 et billard","line":"rue de Bourg 6","longitude":6.634323981,"latitude":46.5201566501},{"city":"lausanne","year":1832,"id":727,"job":"cafeti.","name":"Morand","job_desc":"caf\u00e9 et billard","line":"rue de Bourg 6","longitude":6.634323981,"latitude":46.5201566501},{"city":"lausanne","year":1832,"id":728,"job":"taill.","name":"Morin","job_desc":"tailleur","line":"rue du Grand St Jean 4","longitude":6.6309536286,"latitude":46.5217708018},{"city":"lausanne","year":1832,"id":729,"job":"avocat","name":"Morin","job_desc":"procureur-jur\u00e9","line":"mont\u00e9e de P\u00e9pinet 30","longitude":6.6320035967,"latitude":46.5202746586},{"city":"lausanne","year":1832,"id":729,"job":"procureur-jur\u00e9","name":"Morin","job_desc":"procureur-jur\u00e9","line":"mont\u00e9e de P\u00e9pinet 30","longitude":6.6320035967,"latitude":46.5202746586},{"city":"lausanne","year":1832,"id":729,"job":"notaire","name":"Morin","job_desc":"procureur-jur\u00e9","line":"mont\u00e9e de P\u00e9pinet 30","longitude":6.6320035967,"latitude":46.5202746586},{"city":"lausanne","year":1832,"id":731,"job":"blanchiss.","name":"Moser (Mme.)","job_desc":"blanchisseuse","line":"Etraz 39","longitude":6.6380892559,"latitude":46.519312472},{"city":"lausanne","year":1832,"id":732,"job":"cordonni.","name":"Moser","job_desc":"cordonnier","line":"Escaliers du march\u00e9 7","longitude":6.6336893241,"latitude":46.5221672986},{"city":"lausanne","year":1832,"id":733,"job":"gypsi.","name":"Molino","job_desc":"gypsier","line":"rue de la Mercerie 9","longitude":6.6346062644,"latitude":46.5216162098},{"city":"lausanne","year":1832,"id":734,"job":"boulang.","name":"Moulin (Fr.)","job_desc":"boulanger","line":"Petit-Ch\u00eane 3","longitude":6.631858266,"latitude":46.5193171847},{"city":"lausanne","year":1832,"id":735,"job":"institut.","name":"Mounoud","job_desc":"instituteur","line":"rue de la Madeleine 8","longitude":6.6329985449,"latitude":46.5226539441},{"city":"lausanne","year":1832,"id":736,"job":"cordonni.","name":"Mouton","job_desc":"cordonnier","line":"rue du Pr\u00e9 9","longitude":6.6345552107,"latitude":46.5210517246},{"city":"lausanne","year":1832,"id":737,"job":"modiste","name":"Mouthy (Dlle.)","job_desc":"modiste","line":"Place de la Palud 21","longitude":6.6332678267,"latitude":46.5219078281},{"city":"lausanne","year":1832,"id":738,"job":"coiff.","name":"M\u00fcller (oncle)","job_desc":"coiffeur","line":"Petit St Jean 10","longitude":6.6332830475,"latitude":46.5208990674},{"city":"lausanne","year":1832,"id":739,"job":"coiff.","name":"M\u00fcller (neveu)","job_desc":"coiffeur","line":"rue St Pierre 4","longitude":6.636535809,"latitude":46.5199073857},{"city":"lausanne","year":1832,"id":740,"job":"coiff.","name":"M\u00fcller (L.)","job_desc":"coiffeur","line":"Escaliers du march\u00e9 2","longitude":6.6335553131,"latitude":46.5219429873},{"city":"lausanne","year":1832,"id":742,"job":"blanchiss.","name":"Muller (Dlle.)","job_desc":"blanchisseuse","line":"mont\u00e9e de St Fran\u00e7ois 13","longitude":6.6337247171,"latitude":46.5202734588},{"city":"lausanne","year":1832,"id":743,"job":"cordonni.","name":"Muller","job_desc":"cordonnier","line":"Cheneau de Bourg 38","longitude":6.6365313107,"latitude":46.5207019629},{"city":"lausanne","year":1832,"id":748,"job":"peintre","name":"Na\u00ebff-Develey","job_desc":"peintre","line":"place de la Palud 2","longitude":6.6330355021,"latitude":46.5217138487},{"city":"lausanne","year":1832,"id":749,"job":"horlog.","name":"Narbel","job_desc":"horloger","line":"Escaliers du march\u00e9 9","longitude":6.6338024256,"latitude":46.5222621239},{"city":"lausanne","year":1832,"id":751,"job":"fond.","name":"Ney","job_desc":"fondeur","line":"rue du Grand St Jean 3","longitude":6.6308301892,"latitude":46.5218650196},{"city":"lausanne","year":1832,"id":752,"job":"n\u00e9goce","name":"Neyret (Georges)","job_desc":"n\u00e9gociant","line":"Grand St Jean 10","longitude":6.6313427957,"latitude":46.521536851},{"city":"lausanne","year":1832,"id":753,"job":"charron","name":"Neyroud","job_desc":"charron","line":"Halle de St Laurent 42","longitude":6.6276053422,"latitude":46.5237964506},{"city":"lausanne","year":1832,"id":754,"job":"taill.","name":"Neyroud","job_desc":"tailleur","line":"mont\u00e9e de la Palud 8","longitude":6.6331979172,"latitude":46.52134701},{"city":"lausanne","year":1832,"id":755,"job":"blanchiss.","name":"Neyroud (Mme.)","job_desc":"blanchisseuse","line":"Halle de St Laurent 42","longitude":6.6276053422,"latitude":46.5237964506},{"city":"lausanne","year":1832,"id":756,"job":"notaire","name":"Nicole (Ch.)","job_desc":"notaire","line":"place St Fran\u00e7ois 13","longitude":6.632895643,"latitude":46.5199496967},{"city":"lausanne","year":1832,"id":757,"job":"march.","name":"Nobs (Andr\u00e9)","job_desc":"marchand de fer","line":"place de St Laurent 26","longitude":6.6305662422,"latitude":46.5223747951},{"city":"lausanne","year":1832,"id":757,"job":"ferblanti.","name":"Nobs (Andr\u00e9)","job_desc":"marchand de fer","line":"place de St Laurent 26","longitude":6.6305662422,"latitude":46.5223747951},{"city":"lausanne","year":1832,"id":758,"job":"pharmaci.","name":"No\u00ebller","job_desc":"pharmacien","line":"Escaliers du march\u00e9 20","longitude":6.6338234646,"latitude":46.5219504405},{"city":"lausanne","year":1832,"id":759,"job":"toilerie","name":"Noir(veuve et fils)","job_desc":"toilerie","line":"Rue du Pr\u00e9 21","longitude":6.635539044,"latitude":46.5209323841},{"city":"lausanne","year":1832,"id":761,"job":"modiste","name":"Odin (Mutes s\u0153urs)","job_desc":"modistes","line":"rue de Bourg 40","longitude":6.6340231186,"latitude":46.5199950037},{"city":"lausanne","year":1832,"id":762,"job":"sage-femme","name":"Ogiez (Mme.)","job_desc":"sage-femme","line":"Cheneau de Bourg 18","longitude":6.6362389268,"latitude":46.5206577703},{"city":"lausanne","year":1832,"id":763,"job":"cordonni.","name":"Olivier","job_desc":"cordonnier","line":"rue St Etienne 6","longitude":6.6352177136,"latitude":46.5219207569},{"city":"lausanne","year":1832,"id":764,"job":"armuri.","name":"Olivier","job_desc":"armurier","line":"rue de Martheray 44","longitude":6.6382526275,"latitude":46.5202771963},{"city":"lausanne","year":1832,"id":765,"job":"serruri.","name":"Ortolf","job_desc":"serrurier","line":"mont\u00e9e de P\u00e9pinet 29","longitude":6.6320035967,"latitude":46.5202746586},{"city":"lausanne","year":1832,"id":766,"job":"institut.","name":"Pache","job_desc":"instituteur","line":"Escaliers du march\u00e9 14","longitude":6.6340324302,"latitude":46.5223994567},{"city":"lausanne","year":1832,"id":767,"job":"teinturi.","name":"Pache","job_desc":"teinturier","line":"Escaliers du march\u00e9 6","longitude":6.6336893241,"latitude":46.5221672986},{"city":"lausanne","year":1832,"id":768,"job":"blanchiss.","name":"Pache (Mmes.)","job_desc":"blanchisseuses","line":"Cheneau de Bourg 40","longitude":6.6366575803,"latitude":46.52065934},{"city":"lausanne","year":1832,"id":769,"job":"blanchiss.","name":"Pache (Dlle.)","job_desc":"blanchisseuse","line":"rue du Grand Jean 44","longitude":6.630687298,"latitude":46.5217749172},{"city":"lausanne","year":1832,"id":770,"job":"blanchiss.","name":"Pache (Mme)","job_desc":"blanchisseuse","line":"mont\u00e9e de la Palud 17","longitude":6.6334170027,"latitude":46.5213728528},{"city":"lausanne","year":1832,"id":771,"job":"taill.","name":"Pache","job_desc":"tailleur","line":"rue du Pr\u00e9 21","longitude":6.635539044,"latitude":46.5209323841},{"city":"lausanne","year":1832,"id":772,"job":"taill.","name":"Pache (Auguste)","job_desc":"tailleur","line":"Chemin de Bourg 39","longitude":6.6365908718,"latitude":46.5206855694},{"city":"lausanne","year":1832,"id":774,"job":"cocher","name":"Pache","job_desc":"charretier","line":"Halle de St Laurent 59","longitude":6.6287966377,"latitude":46.5234251179},{"city":"lausanne","year":1832,"id":774,"job":"charreti.","name":"Pache","job_desc":"charretier","line":"Halle de St Laurent 59","longitude":6.6287966377,"latitude":46.5234251179},{"city":"lausanne","year":1832,"id":776,"job":"gypsi.","name":"Paganetti","job_desc":"gypsier","line":"Etraz 15","longitude":6.6385979107,"latitude":46.5193667425},{"city":"lausanne","year":1832,"id":778,"job":"billard","name":"Pahud (G.)","job_desc":"caf\u00e9 et billard","line":"Place St Fran\u00e7ois 15","longitude":6.6331137352,"latitude":46.5200207823},{"city":"lausanne","year":1832,"id":778,"job":"cafeti.","name":"Pahud (G.)","job_desc":"caf\u00e9 et billard","line":"Place St Fran\u00e7ois 15","longitude":6.6331137352,"latitude":46.5200207823},{"city":"lausanne","year":1832,"id":779,"job":"institut.","name":"Pamblanc (M m es.)","job_desc":"institutrices","line":"Cheneau de Bourg 7","longitude":6.6362906786,"latitude":46.5204328221},{"city":"lausanne","year":1832,"id":780,"job":"boulang.","name":"Pamblanc","job_desc":"boulanger","line":"place de la Palud 16","longitude":6.6325352109,"latitude":46.5222258881},{"city":"lausanne","year":1832,"id":782,"job":"mar\u00e9chal","name":"Panchaud","job_desc":"mar\u00e9chal","line":"la Barre 45","longitude":6.6360380417,"latitude":46.5253176957},{"city":"lausanne","year":1832,"id":784,"job":"notaire","name":"Panchaud","job_desc":"notaire","line":"rue du Grand St Jean 51","longitude":6.630486312,"latitude":46.5220965853},{"city":"lausanne","year":1832,"id":785,"job":"armuri.","name":"Panchaud","job_desc":"armurier","line":"Grand St Jean 36","longitude":6.6315043567,"latitude":46.5213290841},{"city":"lausanne","year":1832,"id":791,"job":"draperie","name":"Paschoud (Eug\u00e8ne)","job_desc":"draperie","line":"rue de Bourg 2","longitude":6.6340503139,"latitude":46.5201412154},{"city":"lausanne","year":1832,"id":792,"job":"trait.","name":"Paschoud","job_desc":"traiteur","line":"mont\u00e9e de la Palud 1","longitude":6.6333443915,"latitude":46.5210067463},{"city":"lausanne","year":1832,"id":794,"job":"docteur droit","name":"Pellis (L.)","job_desc":"docteur en droit","line":"mont\u00e9e de la Palud 11","longitude":6.6331785124,"latitude":46.5214499502},{"city":"lausanne","year":1832,"id":796,"job":"modiste","name":"Peneveyre (Dlle)","job_desc":"modiste","line":"mont\u00e9e de St Fran\u00e7ois 24","longitude":6.6334510187,"latitude":46.5208043227},{"city":"lausanne","year":1832,"id":797,"job":"\u00e9picerie","name":"Peneveyre","job_desc":"\u00e9picerie","line":"Martheray 13","longitude":6.6397974072,"latitude":46.5213395824},{"city":"lausanne","year":1832,"id":798,"job":"coiff.","name":"Peneveyre","job_desc":"coiffeur","line":"rue de Bourg 38","longitude":6.6341717284,"latitude":46.5200104975},{"city":"lausanne","year":1832,"id":800,"job":"laiti.","name":"P\u00e9riraz","job_desc":"laitier","line":"Cit\u00e9-devant 23","longitude":6.6354453211,"latitude":46.5236318654},{"city":"lausanne","year":1832,"id":801,"job":"institut.","name":"Pernet (Mme)","job_desc":"institutrice","line":"rue Chaucrau 32","longitude":6.6309726424,"latitude":46.5227693278},{"city":"lausanne","year":1832,"id":802,"job":"architecte","name":"Perregaux","job_desc":"architecte","line":"place St Fran\u00e7ois 9","longitude":6.6326431152,"latitude":46.5198910228},{"city":"lausanne","year":1832,"id":803,"job":"march.","name":"Perret","job_desc":"marchand frippier","line":"rue du Pr\u00e9 47","longitude":6.634255369,"latitude":46.5209584282},{"city":"lausanne","year":1832,"id":803,"job":"fripp.","name":"Perret","job_desc":"marchand frippier","line":"rue du Pr\u00e9 47","longitude":6.634255369,"latitude":46.5209584282},{"city":"lausanne","year":1832,"id":804,"job":"m\u00e9decin","name":"Perret","job_desc":"docteur en m\u00e9decine","line":"rue de Bourg 38","longitude":6.6341717284,"latitude":46.5200104975},{"city":"lausanne","year":1832,"id":804,"job":"doct.","name":"Perret","job_desc":"docteur en m\u00e9decine","line":"rue de Bourg 38","longitude":6.6341717284,"latitude":46.5200104975},{"city":"lausanne","year":1832,"id":805,"job":"\u00e9picerie","name":"Perrottet","job_desc":"\u00e9picerie et tabac","line":"Mont\u00e9e de la Palud 15","longitude":6.6334032316,"latitude":46.5214727779},{"city":"lausanne","year":1832,"id":805,"job":"tabac","name":"Perrottet","job_desc":"\u00e9picerie et tabac","line":"Mont\u00e9e de la Palud 15","longitude":6.6334032316,"latitude":46.5214727779},{"city":"lausanne","year":1832,"id":807,"job":"taill.","name":"Petit","job_desc":"tailleur","line":"place de la Palud 11","longitude":6.6322016834,"latitude":46.5222419278},{"city":"lausanne","year":1832,"id":809,"job":"institut.","name":"Petipierre (Mme.)","job_desc":"institutrice","line":"rue de la Mercerie 21","longitude":6.6336978801,"latitude":46.5217924024},{"city":"lausanne","year":1832,"id":811,"job":"musici.","name":"Peytregnet","job_desc":"ma\u00eetre de musique","line":"Mercerie 9","longitude":6.6346062644,"latitude":46.5216162098},{"city":"lausanne","year":1832,"id":811,"job":"ma\u00eetre","name":"Peytregnet","job_desc":"ma\u00eetre de musique","line":"Mercerie 9","longitude":6.6346062644,"latitude":46.5216162098},{"city":"lausanne","year":1832,"id":813,"job":"\u00e9picerie","name":"Peytregnet","job_desc":"\u00e9picerie et tabac","line":"St Pierre 16","longitude":6.6369145939,"latitude":46.519533383},{"city":"lausanne","year":1832,"id":813,"job":"tabac","name":"Peytregnet","job_desc":"\u00e9picerie et tabac","line":"St Pierre 16","longitude":6.6369145939,"latitude":46.519533383},{"city":"lausanne","year":1832,"id":814,"job":"cordonni.","name":"Peytregnet","job_desc":"cordonnier","line":"Grand St Jean 36","longitude":6.6315043567,"latitude":46.5213290841},{"city":"lausanne","year":1832,"id":819,"job":"laiti.","name":"Pf\u00fcnd (P.)","job_desc":"laitier","line":"place de la Palud 4","longitude":6.6325943851,"latitude":46.5219963963},{"city":"lausanne","year":1832,"id":820,"job":"march.","name":"Piccard (fr\u00e8res)","job_desc":"marchands","line":"rue de Bourg 14","longitude":6.6350258788,"latitude":46.5201125706},{"city":"lausanne","year":1832,"id":823,"job":"cordonni.","name":"Pillet","job_desc":"cordonnier","line":"rue du Grand St Jean 32","longitude":6.6317964771,"latitude":46.5212474736},{"city":"lausanne","year":1832,"id":824,"job":"march.","name":"Pinget (Dlle.)","job_desc":"marchande","line":"rue de la Mercerie 1","longitude":6.6339081675,"latitude":46.521831775},{"city":"lausanne","year":1832,"id":825,"job":"confis.","name":"Pinguely","job_desc":"confiseur","line":"rue du Grand St Jean 21","longitude":6.6321407709,"latitude":46.5212960212},{"city":"lausanne","year":1832,"id":826,"job":"institut.","name":"Pinguely (Dlle.)","job_desc":"institutrice","line":"rue du Grand Jean 21","longitude":6.6321407709,"latitude":46.5212960212},{"city":"lausanne","year":1832,"id":827,"job":"draperie","name":"Piot (J.-M.)","job_desc":"draperie","line":"mont\u00e9e de St Fran\u00e7ois 23","longitude":6.6335226579,"latitude":46.5207461807},{"city":"lausanne","year":1832,"id":828,"job":"ferblanti.","name":"Piot","job_desc":"marchand de fer","line":"rue St Pierre 1","longitude":6.6363088928,"latitude":46.5200176606},{"city":"lausanne","year":1832,"id":828,"job":"march.","name":"Piot","job_desc":"marchand de fer","line":"rue St Pierre 1","longitude":6.6363088928,"latitude":46.5200176606},{"city":"lausanne","year":1832,"id":830,"job":"peintre","name":"Piot (Auguste)","job_desc":"peintre","line":"rue St Pierre 16","longitude":6.6369145939,"latitude":46.519533383},{"city":"lausanne","year":1832,"id":834,"job":"\u00e9b\u00e9niste","name":"Pittet","job_desc":"\u00e9b\u00e9niste","line":"la Barre 4","longitude":6.6353778416,"latitude":46.5252391544},{"city":"lausanne","year":1832,"id":836,"job":"cabaret.","name":"Ponnaz","job_desc":"cabaretier","line":"Cit\u00e9-devant 9","longitude":6.6353996583,"latitude":46.5239535898},{"city":"lausanne","year":1832,"id":837,"job":"boulang.","name":"Porchet","job_desc":"boulanger","line":"mont\u00e9e de St Laurent 2","longitude":6.6318440697,"latitude":46.5222698038},{"city":"lausanne","year":1832,"id":838,"job":"trait.","name":"Porchet (veuve)","job_desc":"traiteur","line":"Escalier du march\u00e9 5","longitude":6.6336351494,"latitude":46.5221143273},{"city":"lausanne","year":1832,"id":840,"job":"menuisi.","name":"Pouly","job_desc":"menuisier","line":"Etraz 5","longitude":6.6379667998,"latitude":46.5194555489},{"city":"lausanne","year":1832,"id":841,"job":"trait.","name":"Pouly","job_desc":"traiteur","line":"place St Fran\u00e7ois 10","longitude":6.6327046074,"latitude":46.5199073838},{"city":"lausanne","year":1832,"id":842,"job":"voituri.","name":"Pouly","job_desc":"voiturier","line":"Grand St Jean 24","longitude":6.6321407709,"latitude":46.5212960212},{"city":"lausanne","year":1832,"id":842,"job":"cocher","name":"Pouly","job_desc":"voiturier","line":"Grand St Jean 24","longitude":6.6321407709,"latitude":46.5212960212},{"city":"lausanne","year":1832,"id":844,"job":"march.","name":"Prenleloup","job_desc":"marchand","line":"place de la Palud 6","longitude":6.6324939682,"latitude":46.5220543863},{"city":"lausanne","year":1832,"id":846,"job":"menuisi.","name":"Prince","job_desc":"menuisier","line":"Halle de St Laurent 74","longitude":6.6287966377,"latitude":46.5234251179},{"city":"lausanne","year":1832,"id":848,"job":"trait.","name":"Ramel","job_desc":"traiteur","line":"Martheray 13","longitude":6.6397974072,"latitude":46.5213395824},{"city":"lausanne","year":1832,"id":849,"job":"cordonni.","name":"Ramel (L.)","job_desc":"cordonnier","line":"mont\u00e9e de St Laurent 7","longitude":6.6314395759,"latitude":46.5222636586},{"city":"lausanne","year":1832,"id":850,"job":"menuisi.","name":"Ramelet","job_desc":"menuisier et \u00e9b\u00e9niste","line":"rue de la Madeleine 5","longitude":6.6329218782,"latitude":46.5225352561},{"city":"lausanne","year":1832,"id":850,"job":"\u00e9b\u00e9niste","name":"Ramelet","job_desc":"menuisier et \u00e9b\u00e9niste","line":"rue de la Madeleine 5","longitude":6.6329218782,"latitude":46.5225352561},{"city":"lausanne","year":1832,"id":851,"job":"selli.","name":"Ramuz","job_desc":"sellier","line":"rue Martheray 48","longitude":6.6381271569,"latitude":46.5201399439},{"city":"lausanne","year":1832,"id":852,"job":"cabaret.","name":"Rapaz","job_desc":"cabaretier","line":"rue de Martheray 53","longitude":6.6379164306,"latitude":46.5199074996},{"city":"lausanne","year":1832,"id":853,"job":"fond.","name":"Ravessoud","job_desc":"fondeur","line":"rue du Pr\u00e9 19","longitude":6.6353278299,"latitude":46.5209504842},{"city":"lausanne","year":1832,"id":855,"job":"trait.","name":"Rebillet (Dlle.)","job_desc":"traiteur","line":"rue Mercerie 6","longitude":6.6344074212,"latitude":46.5216526295},{"city":"lausanne","year":1832,"id":856,"job":"architecte","name":"Recordon","job_desc":"architecte","line":"place de St Laurent 7","longitude":6.6305662422,"latitude":46.5223747951},{"city":"lausanne","year":1832,"id":858,"job":"cabaret.","name":"Regamey","job_desc":"cabaretier","line":"rue de la Madeleine 17","longitude":6.6330989807,"latitude":46.5221087113},{"city":"lausanne","year":1832,"id":859,"job":"charpenti.","name":"Regamey","job_desc":"charpentier","line":"rue de la Mercerie 14","longitude":6.6343473391,"latitude":46.5215916018},{"city":"lausanne","year":1832,"id":860,"job":"charpenti.","name":"Regamey (Christ)","job_desc":"charpentier","line":"Cit\u00e9-derri\u00e8re 33","longitude":6.6355295957,"latitude":46.5230116929},{"city":"lausanne","year":1832,"id":861,"job":"cordonni.","name":"Regamey","job_desc":"cordonnier","line":"rue de Bourg 24","longitude":6.6360321089,"latitude":46.5200784629},{"city":"lausanne","year":1832,"id":862,"job":"poti.","name":"Regamey","job_desc":"potier de terre","line":"rue Martheray 56","longitude":6.6377941772,"latitude":46.5197691394},{"city":"lausanne","year":1832,"id":864,"job":"taill.","name":"Regamey","job_desc":"tailleur","line":"Martheray 39","longitude":6.6384440506,"latitude":46.5204720055},{"city":"lausanne","year":1832,"id":866,"job":"coiff.","name":"Reisser","job_desc":"coiffeur","line":"rue du Grand St Jean 20","longitude":6.6321407709,"latitude":46.5212960212},{"city":"lausanne","year":1832,"id":870,"job":"confis.","name":"Renaud","job_desc":"confiseur","line":"Cit\u00e9-devant 28","longitude":6.6352937208,"latitude":46.5232648961},{"city":"lausanne","year":1832,"id":871,"job":"taill.","name":"Renaud","job_desc":"tailleur","line":"Cheneau de Bourg 6","longitude":6.6362848806,"latitude":46.5203809579},{"city":"lausanne","year":1832,"id":872,"job":"teinturi.","name":"Renou-Reimbach","job_desc":"teinturier","line":"Mont\u00e9e de la Palud 13","longitude":6.6331503443,"latitude":46.5215477216},{"city":"lausanne","year":1832,"id":878,"job":"institut.","name":"Heymond","job_desc":"h\u00f4tel d'Angleterre","line":"St Pierre 24","longitude":6.6364549701,"latitude":46.5197610027},{"city":"lausanne","year":1832,"id":878,"job":"institut.","name":"Reymond","job_desc":"instituteur","line":"mont\u00e9e de St Laurent 8","longitude":6.6364549701,"latitude":46.5197610027},{"city":"lausanne","year":1832,"id":878,"job":"institut.","name":"Heymond","job_desc":"h\u00f4tel d'Angleterre","line":"St Pierre 24","longitude":6.6312883229,"latitude":46.5222666321},{"city":"lausanne","year":1832,"id":878,"job":"institut.","name":"Reymond","job_desc":"instituteur","line":"mont\u00e9e de St Laurent 8","longitude":6.6312883229,"latitude":46.5222666321},{"city":"lausanne","year":1832,"id":880,"job":"modiste","name":"Reymond et Guignard (Dlles. ')","job_desc":"modistes","line":"place la Palud 8","longitude":6.6323881719,"latitude":46.5221197791},{"city":"lausanne","year":1832,"id":881,"job":"horlog.","name":"Reymond","job_desc":"horloger","line":"rue d' Etraz 3","longitude":6.6378519234,"latitude":46.5194711632},{"city":"lausanne","year":1832,"id":882,"job":"modiste","name":"Reymond (Dde.)","job_desc":"modiste","line":"Martheray 39","longitude":6.6384440506,"latitude":46.5204720055},{"city":"lausanne","year":1832,"id":883,"job":"marbri.","name":"Reymond (Alex.)","job_desc":"marbrier","line":"rue de Chaucrau 16","longitude":6.6312007906,"latitude":46.5231445323},{"city":"lausanne","year":1832,"id":884,"job":"institut.","name":"Reynard (\u00fclle.)","job_desc":"institutrice","line":"rue de Bourg 14","longitude":6.6350258788,"latitude":46.5201125706},{"city":"lausanne","year":1832,"id":886,"job":"cordonni.","name":"Richardet","job_desc":"cordonnier","line":"Cheneau de Bourg 47","longitude":6.6365837245,"latitude":46.5204117986},{"city":"lausanne","year":1832,"id":887,"job":"courti.","name":"Richon (p\u00e8re)","job_desc":"courtier","line":"Petit St Jean 4","longitude":6.6329832133,"latitude":46.5209834876},{"city":"lausanne","year":1832,"id":888,"job":"courti.","name":"Richon (fils)","job_desc":"courtier","line":"Grand St Jean 40","longitude":6.6312232182,"latitude":46.5214514997},{"city":"lausanne","year":1832,"id":889,"job":"taill.","name":"Richter","job_desc":"tailleur","line":"rue de Martheray 39","longitude":6.6384440506,"latitude":46.5204720055},{"city":"lausanne","year":1832,"id":890,"job":"mar\u00e9chal","name":"Rieder","job_desc":"mar\u00e9chal","line":"Martheray 24","longitude":6.640203508,"latitude":46.5213355718},{"city":"lausanne","year":1832,"id":891,"job":"tisser.","name":"Rieder","job_desc":"tisserand","line":"Martheray 24","longitude":6.640203508,"latitude":46.5213355718},{"city":"lausanne","year":1832,"id":892,"job":"march.","name":"Rion (veuve)","job_desc":"marchande","line":"Rue de la Madeleine 4","longitude":6.6329437617,"latitude":46.5223778377},{"city":"lausanne","year":1832,"id":893,"job":"march.","name":"Rion (Mme.)","job_desc":"marchande","line":"de la rue Mercierie 2","longitude":6.6339982907,"latitude":46.5217992926},{"city":"lausanne","year":1832,"id":894,"job":"cordonni.","name":"Rion","job_desc":"cordonnier","line":"rue Mercerie 2","longitude":6.6339982907,"latitude":46.5217992926},{"city":"lausanne","year":1832,"id":895,"job":"cordonni.","name":"Ritz","job_desc":"cordonnier","line":"Cit\u00e9-dessous 34","longitude":6.6360515398,"latitude":46.5221194693},{"city":"lausanne","year":1832,"id":896,"job":"quincaillerie","name":"Rob\u00e9laz","job_desc":"quincaillerie","line":"rue de Bourg 30","longitude":6.6356719149,"latitude":46.5199261147},{"city":"lausanne","year":1832,"id":897,"job":"quincaillerie","name":"Rob\u00e9laz (JD IIe.)","job_desc":"quincaillerie","line":"mont\u00e9e de St Fran\u00e7ois 8","longitude":6.6339157548,"latitude":46.5203492968},{"city":"lausanne","year":1832,"id":899,"job":"institut.","name":"Robert","job_desc":"instituteur","line":"Escaliers du march\u00e9 5","longitude":6.6336351494,"latitude":46.5221143273},{"city":"lausanne","year":1832,"id":900,"job":"modiste","name":"Robert (Dlles.)","job_desc":"modistes","line":"rue du Grand St Jean 52","longitude":6.6304620702,"latitude":46.5221402103},{"city":"lausanne","year":1832,"id":901,"job":"taill.","name":"Robin (Mme.)","job_desc":"tailleuse en dames","line":"rue St Pierre 3","longitude":6.6364719888,"latitude":46.5199591076},{"city":"lausanne","year":1832,"id":902,"job":"\u00e9picerie","name":"Robin (Mme.)","job_desc":"\u00e9picerie","line":"Cheneau de Bourg 22","longitude":6.6362389268,"latitude":46.5206577703},{"city":"lausanne","year":1832,"id":903,"job":"tourn.","name":"Robin","job_desc":"tourneur","line":"Cheneau de Bourg 7","longitude":6.6362906786,"latitude":46.5204328221},{"city":"lausanne","year":1832,"id":904,"job":"cordonni.","name":"Roch","job_desc":"cordonnier","line":"place St Laurent 20","longitude":6.6305662422,"latitude":46.5223747951},{"city":"lausanne","year":1832,"id":906,"job":"blanchiss.","name":"Roch (Dlle.)","job_desc":"blanchisseuse","line":"Petit-Ch\u00eane 4","longitude":6.6318356773,"latitude":46.5192576012},{"city":"lausanne","year":1832,"id":908,"job":"boulang.","name":"Rochat (Christ)","job_desc":"boulanger","line":"mont\u00e9e de St Fran\u00e7ois 9","longitude":6.6339194286,"latitude":46.5202949462},{"city":"lausanne","year":1832,"id":909,"job":"boulang.","name":"Rochat","job_desc":"boulanger","line":"place de St Laurent 11","longitude":6.6305662422,"latitude":46.5223747951},{"city":"lausanne","year":1832,"id":910,"job":"serruri.","name":"Rochat","job_desc":"serrurier","line":"Escaliers du march\u00e9 5","longitude":6.6336351494,"latitude":46.5221143273},{"city":"lausanne","year":1832,"id":911,"job":"n\u00e9goce","name":"Rochat","job_desc":"n\u00e9gociant","line":"rue St Pierre 7","longitude":6.6367074145,"latitude":46.5198341942},{"city":"lausanne","year":1832,"id":912,"job":"cordonni.","name":"Rochat","job_desc":"cordonnier","line":"rue St Pierre 21","longitude":6.6366532802,"latitude":46.5196468575},{"city":"lausanne","year":1832,"id":915,"job":"meuni.","name":"Rochat (Georges)","job_desc":"meunier","line":"la Barre 47","longitude":6.6360380417,"latitude":46.5253176957},{"city":"lausanne","year":1832,"id":917,"job":"taill.","name":"Rochat","job_desc":"tailleur","line":"Cheneau de Bourg 9","longitude":6.6363240168,"latitude":46.5205574955},{"city":"lausanne","year":1832,"id":918,"job":"avocat","name":"Rogivue","job_desc":"procureur-jur\u00e9","line":"Place de la Palud 17","longitude":6.6325943851,"latitude":46.522198744},{"city":"lausanne","year":1832,"id":918,"job":"procureur-jur\u00e9","name":"Rogivue","job_desc":"procureur-jur\u00e9","line":"Place de la Palud 17","longitude":6.6325943851,"latitude":46.522198744},{"city":"lausanne","year":1832,"id":918,"job":"notaire","name":"Rogivue","job_desc":"procureur-jur\u00e9","line":"Place de la Palud 17","longitude":6.6325943851,"latitude":46.522198744},{"city":"lausanne","year":1832,"id":919,"job":"cocher","name":"Rollier (Mme.)","job_desc":"voiturier","line":"Grand Ch\u00eane 27","longitude":6.6315627092,"latitude":46.5198404431},{"city":"lausanne","year":1832,"id":919,"job":"voituri.","name":"Rollier (Mme.)","job_desc":"voiturier","line":"Grand Ch\u00eane 27","longitude":6.6315627092,"latitude":46.5198404431},{"city":"lausanne","year":1832,"id":920,"job":"selli.","name":"Rossat","job_desc":"sellier","line":"Grand Ch\u00eane 25","longitude":6.6315627092,"latitude":46.5198404431},{"city":"lausanne","year":1832,"id":921,"job":"jardini.","name":"Rosset","job_desc":"jardinier","line":"Etraz 16","longitude":6.639134922,"latitude":46.5192975298},{"city":"lausanne","year":1832,"id":922,"job":"mar\u00e9chal","name":"Rossier","job_desc":"mar\u00e9chal","line":"Halle de St Laurent 43","longitude":6.6277237733,"latitude":46.5237619857},{"city":"lausanne","year":1832,"id":923,"job":"confis.","name":"Rosset (veuve)","job_desc":"confiseur","line":"place de St Laurent 7","longitude":6.6305662422,"latitude":46.5223747951},{"city":"lausanne","year":1832,"id":924,"job":"tonneli.","name":"Roupff (p\u00e8re)","job_desc":"tonnelier","line":"Halle de St Laurent 36","longitude":6.6275144111,"latitude":46.5237367205},{"city":"lausanne","year":1832,"id":925,"job":"tonneli.","name":"Roupff (fils)","job_desc":"tonnelier","line":"mont\u00e9e de St Laurent 19","longitude":6.6315465827,"latitude":46.5224608213},{"city":"lausanne","year":1832,"id":927,"job":"avocat","name":"Rouge","job_desc":"avocat","line":"Etraz 15","longitude":6.6385979107,"latitude":46.5193667425},{"city":"lausanne","year":1832,"id":929,"job":"cabaret.","name":"Rouge","job_desc":"cabaretier","line":"Place de la Palud 5","longitude":6.632547763,"latitude":46.5220272421},{"city":"lausanne","year":1832,"id":931,"job":"modiste","name":"Rouiller (Dlle.)","job_desc":"modiste","line":"rue de Bourg 35","longitude":6.6349333147,"latitude":46.5199692839},{"city":"lausanne","year":1832,"id":932,"job":"\u00e9b\u00e9niste","name":"* Rouiller","job_desc":"menuisier et \u00e9b\u00e9niste","line":"place de Chaudron 0","longitude":6.6328504182,"latitude":46.5219863716},{"city":"lausanne","year":1832,"id":932,"job":"menuisi.","name":"* Rouiller","job_desc":"menuisier et \u00e9b\u00e9niste","line":"place de Chaudron 0","longitude":6.6328504182,"latitude":46.5219863716},{"city":"lausanne","year":1832,"id":933,"job":"cabaret.","name":"Roussi","job_desc":"cabaretier","line":"rue du Pr\u00e9 18","longitude":6.6352656642,"latitude":46.5209596833},{"city":"lausanne","year":1832,"id":934,"job":"coiff.","name":"Roux","job_desc":"coiffeur","line":"mont\u00e9e de St Fran\u00e7ois 13","longitude":6.6337247171,"latitude":46.5202734588},{"city":"lausanne","year":1832,"id":935,"job":"modiste","name":"Roux (Dlle.)","job_desc":"modiste","line":"mont\u00e9e de St Fran\u00e7ois 14","longitude":6.6337302278,"latitude":46.5203252814},{"city":"lausanne","year":1832,"id":938,"job":"coiff.","name":"Rubatel","job_desc":"coiffeur","line":"rue du Grand St Jean 47","longitude":6.6305972459,"latitude":46.5219063995},{"city":"lausanne","year":1832,"id":941,"job":"march.","name":"Rumpf (Dlle.)","job_desc":"marchande","line":"rue Mercerie 5","longitude":6.6343187286,"latitude":46.5216801904},{"city":"lausanne","year":1832,"id":942,"job":"serruri.","name":"Rusillon","job_desc":"serrurier","line":"rue du Grand St Jean 8","longitude":6.6311375588,"latitude":46.5216334749},{"city":"lausanne","year":1832,"id":943,"job":"menuisi.","name":"Sagne","job_desc":"menuisier","line":"Grand St Jean 13","longitude":6.6316258065,"latitude":46.5214298212},{"city":"lausanne","year":1832,"id":944,"job":"menuisi.","name":"Salchly","job_desc":"menuisier","line":"place de St Laurent 9","longitude":6.6305662422,"latitude":46.5223747951},{"city":"lausanne","year":1832,"id":945,"job":"ferblanti.","name":"Sandtmeyer","job_desc":"ferblantier","line":"rue Chaucrau 35","longitude":6.6309030301,"latitude":46.5226606362},{"city":"lausanne","year":1832,"id":948,"job":"procureur-jur\u00e9","name":"Saunier","job_desc":"procureur-jur\u00e9","line":"Grand St Jean 21","longitude":6.6321407709,"latitude":46.5212960212},{"city":"lausanne","year":1832,"id":948,"job":"avocat","name":"Saunier","job_desc":"procureur-jur\u00e9","line":"Grand St Jean 21","longitude":6.6321407709,"latitude":46.5212960212},{"city":"lausanne","year":1832,"id":948,"job":"notaire","name":"Saunier","job_desc":"procureur-jur\u00e9","line":"Grand St Jean 21","longitude":6.6321407709,"latitude":46.5212960212},{"city":"lausanne","year":1832,"id":949,"job":"boulang.","name":"Sauter","job_desc":"boulanger","line":"rue du Pr\u00e9 15","longitude":6.6350410654,"latitude":46.5209891202},{"city":"lausanne","year":1832,"id":950,"job":"tonneli.","name":"Savary","job_desc":"tonnelier","line":"mont\u00e9e de St Laurent 19","longitude":6.6315465827,"latitude":46.5224608213},{"city":"lausanne","year":1832,"id":954,"job":"menuisi.","name":"Schleicher","job_desc":"menuisier","line":"Mont\u00e9e de St Laurent 11","longitude":6.6310121923,"latitude":46.5224715309},{"city":"lausanne","year":1832,"id":955,"job":"selli.","name":"Schlaich (fils)","job_desc":"sellier","line":"Grand St Jean 16","longitude":6.6318094394,"latitude":46.5213837388},{"city":"lausanne","year":1832,"id":956,"job":"blanchiss.","name":"Schlaich (Mme.)","job_desc":"blanchisseuse","line":"Grand St Jean 16","longitude":6.6318094394,"latitude":46.5213837388},{"city":"lausanne","year":1832,"id":957,"job":"selli.","name":"Schl\u00e6fli","job_desc":"sellier","line":"rue de Martheray 50","longitude":6.6380435098,"latitude":46.5200513938},{"city":"lausanne","year":1832,"id":958,"job":"n\u00e9goce","name":"Schlesinger","job_desc":"n\u00e9gociant","line":"rue de Bourg 36","longitude":6.6346952025,"latitude":46.5200190443},{"city":"lausanne","year":1832,"id":960,"job":"tonneli.","name":"Schmiderlet","job_desc":"tonnelier","line":"Petit-Ch\u00eane 4","longitude":6.6318356773,"latitude":46.5192576012},{"city":"lausanne","year":1832,"id":961,"job":"tonneli.","name":"Schmidhauser","job_desc":"tonnelier","line":"rue du Pr\u00e9 23","longitude":6.6356851861,"latitude":46.5209358516},{"city":"lausanne","year":1832,"id":964,"job":"reli.","name":"Schopffer","job_desc":"relieur","line":"Escaliers du march\u00e9 10","longitude":6.6338499472,"latitude":46.5222882826},{"city":"lausanne","year":1832,"id":967,"job":"couturi.","name":"Schock (Dlle.)","job_desc":"courtepointi\u00e8re","line":"rue du Grand St Jean 2","longitude":6.6307740727,"latitude":46.5219329775},{"city":"lausanne","year":1832,"id":967,"job":"courtepointi.","name":"Schock (Dlle.)","job_desc":"courtepointi\u00e8re","line":"rue du Grand St Jean 2","longitude":6.6307740727,"latitude":46.5219329775},{"city":"lausanne","year":1832,"id":968,"job":"doct.","name":"Scholl","job_desc":"docteur en m\u00e9decine","line":"rue St Pierre 4","longitude":6.636535809,"latitude":46.5199073857},{"city":"lausanne","year":1832,"id":968,"job":"m\u00e9decin","name":"Scholl","job_desc":"docteur en m\u00e9decine","line":"rue St Pierre 4","longitude":6.636535809,"latitude":46.5199073857},{"city":"lausanne","year":1832,"id":969,"job":"modiste","name":"Schoulz (Dlles.)","job_desc":"modistes","line":"mont\u00e9e de la Palud 18","longitude":6.6334307738,"latitude":46.5213228901},{"city":"lausanne","year":1832,"id":970,"job":"menuisi.","name":"Schurch","job_desc":"menuisier","line":"Petit-Ch\u00eane 1","longitude":6.6319429737,"latitude":46.5194467137},{"city":"lausanne","year":1832,"id":972,"job":"docteur droit","name":"Secretan (S.)","job_desc":"docteur en droit","line":"Cit\u00e9-devant 21","longitude":6.6355329935,"latitude":46.5237638229},{"city":"lausanne","year":1832,"id":973,"job":"architecte","name":"Secretan (Emile)","job_desc":"architecte","line":"mont\u00e9e de la Palud 14","longitude":6.6333957201,"latitude":46.5215408302},{"city":"lausanne","year":1832,"id":974,"job":"math\u00e9matici.","name":"* Secretan-Mercier (Marc)","job_desc":"math\u00e9maticien","line":"rue de la Madeleine 15","longitude":6.6331019561,"latitude":46.5222653285},{"city":"lausanne","year":1832,"id":975,"job":"ma\u00e7on.","name":"Semauraud","job_desc":"ma\u00e7on","line":"Cit\u00e9-derri\u00e8re 47b","longitude":6.6355295957,"latitude":46.5230116929},{"city":"lausanne","year":1832,"id":976,"job":"boulang.","name":"Seuff","job_desc":"boulanger","line":"rue de la Madeleine 13","longitude":6.6330960053,"latitude":46.5224035198},{"city":"lausanne","year":1832,"id":977,"job":"armuri.","name":"Siber","job_desc":"armurier","line":"Escaliers du march\u00e9 12","longitude":6.6339335852,"latitude":46.5223353681},{"city":"lausanne","year":1832,"id":979,"job":"chapeli.","name":"Sicard","job_desc":"chapelier","line":"Martheray 37","longitude":6.6390296307,"latitude":46.5207696863},{"city":"lausanne","year":1832,"id":980,"job":"march.","name":"Siegfried (Nicolas)","job_desc":"marchand","line":"rue de Mar\u00adtheray 44","longitude":6.6382526275,"latitude":46.5202771963},{"city":"lausanne","year":1832,"id":981,"job":"blanchiss.","name":"Simmen (Mme.)","job_desc":"blanchisseuse","line":"Cit\u00e9-derri\u00e8re 27","longitude":6.6359689097,"latitude":46.5231322727},{"city":"lausanne","year":1832,"id":982,"job":"\u00e9picerie","name":"Simond (Albert)","job_desc":"\u00e9picerie","line":"place de la Palud 2","longitude":6.6330355021,"latitude":46.5217138487},{"city":"lausanne","year":1832,"id":984,"job":"architecte","name":"Simon (Fridolin)","job_desc":"architecte","line":"mont\u00e9e de P\u00e9pinet 29","longitude":6.6320035967,"latitude":46.5202746586},{"city":"lausanne","year":1832,"id":985,"job":"confis.","name":"Sion","job_desc":"confiseur","line":"place de la Palud 24","longitude":6.6334094614,"latitude":46.5216458778},{"city":"lausanne","year":1832,"id":986,"job":"trait.","name":"Solier","job_desc":"traiteur","line":"rue St Pierre 23","longitude":6.6365116992,"latitude":46.5197268466},{"city":"lausanne","year":1832,"id":987,"job":"draperie","name":"Spach","job_desc":"draperie","line":"place du Pont 1","longitude":6.6337022364,"latitude":46.5210229741},{"city":"lausanne","year":1832,"id":988,"job":"\u00e9b\u00e9niste","name":"* Specht","job_desc":"\u00e9b\u00e9niste","line":"Halle de St Laurent 20","longitude":6.6282339179,"latitude":46.523278036},{"city":"lausanne","year":1832,"id":989,"job":"lithographie","name":"* Spengler","job_desc":"lithographe","line":"Etraz 39","longitude":6.6380892559,"latitude":46.519312472},{"city":"lausanne","year":1832,"id":990,"job":"ma\u00e7on.","name":"Spring","job_desc":"ma\u00e7on","line":"rue du Pr\u00e9 24","longitude":6.6358041155,"latitude":46.5209545764},{"city":"lausanne","year":1832,"id":991,"job":"institut.","name":"Spring","job_desc":"instituteur","line":"rue de la Mercerie 17","longitude":6.6339954296,"latitude":46.5217215317},{"city":"lausanne","year":1832,"id":992,"job":"cordonni.","name":"Steiner","job_desc":"cordonnier","line":"Cheneau de Bourg 22","longitude":6.6362389268,"latitude":46.5206577703},{"city":"lausanne","year":1832,"id":993,"job":"selli.","name":"Steiner","job_desc":"sellier","line":"rue de Bourg 18","longitude":6.6356273037,"latitude":46.5200841475},{"city":"lausanne","year":1832,"id":994,"job":"taill.","name":"Steiner","job_desc":"tailleur","line":"rue St Pierre 7","longitude":6.6367074145,"latitude":46.5198341942},{"city":"lausanne","year":1832,"id":995,"job":"voituri.","name":"Steiner","job_desc":"voiturier","line":"rue St Pierre 11","longitude":6.6368800511,"latitude":46.5196543835},{"city":"lausanne","year":1832,"id":995,"job":"cocher","name":"Steiner","job_desc":"voiturier","line":"rue St Pierre 11","longitude":6.6368800511,"latitude":46.5196543835},{"city":"lausanne","year":1832,"id":996,"job":"bijouti.","name":"Stiffel","job_desc":"bijoutier","line":"mont\u00e9e de St Fran\u00e7ois 22","longitude":6.6335796018,"latitude":46.5206817189},{"city":"lausanne","year":1832,"id":997,"job":"selli.","name":"St\u0153hly","job_desc":"sellier","line":"Cheneau de Bourg 40","longitude":6.6366575803,"latitude":46.52065934},{"city":"lausanne","year":1832,"id":998,"job":"trait.","name":"Stockly","job_desc":"traiteur","line":"rue du Grand St Jean 6","longitude":6.6309536286,"latitude":46.5217708018},{"city":"lausanne","year":1832,"id":999,"job":"teinturi.","name":"Strubin","job_desc":"teinturier","line":"rue du Pr\u00e9 45","longitude":6.6345126652,"latitude":46.5209603534},{"city":"lausanne","year":1832,"id":1000,"job":"commissionnaire","name":"Sudheimer (F.)","job_desc":"commissionnaire","line":"place de St Fran\u00e7ois 0","longitude":6.6331609514,"latitude":46.519850718},{"city":"lausanne","year":1832,"id":1002,"job":"couvr.","name":"Sutenhelm","job_desc":"couvreur","line":"rue de Martheray 52","longitude":6.6379695143,"latitude":46.519958416},{"city":"lausanne","year":1832,"id":1003,"job":"ferblanti.","name":"Sutenhelm","job_desc":"ferblantier","line":"rue Martheray 52","longitude":6.6379695143,"latitude":46.519958416},{"city":"lausanne","year":1832,"id":1004,"job":"institut.","name":"Tardent (Fr\u00e9derique)","job_desc":"institutrice","line":"la Barre 53","longitude":6.6360615701,"latitude":46.5251304736},{"city":"lausanne","year":1832,"id":1005,"job":"trait.","name":"Tavernier (Mme.)","job_desc":"traiteur","line":"place de St Laurent 13","longitude":6.6305662422,"latitude":46.5223747951},{"city":"lausanne","year":1832,"id":1006,"job":"charcuti.","name":"Teppel","job_desc":"charcutier","line":"rue du Grand St Jean 52","longitude":6.6304620702,"latitude":46.5221402103},{"city":"lausanne","year":1832,"id":1007,"job":"serruri.","name":"Tesse","job_desc":"serrurier","line":"rue St Etienne 2","longitude":6.6349046621,"latitude":46.5216005},{"city":"lausanne","year":1832,"id":1009,"job":"cordonni.","name":"Th\u00e9lin","job_desc":"cordonnier","line":"mont\u00e9e de la Palud 14","longitude":6.6333957201,"latitude":46.5215408302},{"city":"lausanne","year":1832,"id":1010,"job":"trait.","name":"Throst","job_desc":"traiteur","line":"rue du Pr\u00e9 4","longitude":6.634053196,"latitude":46.5210449924},{"city":"lausanne","year":1832,"id":1011,"job":"reli.","name":"Thuillard","job_desc":"relieur","line":"mont\u00e9e de la Palud 7","longitude":6.6332066806,"latitude":46.5213082459},{"city":"lausanne","year":1832,"id":1013,"job":"charpenti.","name":"Tissot","job_desc":"charpentier","line":"Halle de St Laurent 71","longitude":6.6287966377,"latitude":46.5234251179},{"city":"lausanne","year":1832,"id":1014,"job":"institut.","name":"Tissot","job_desc":"instituteur","line":"Cit\u00e9-derri\u00e8re 27","longitude":6.6359689097,"latitude":46.5231322727},{"city":"lausanne","year":1832,"id":1015,"job":"serruri.","name":"Tissot","job_desc":"serrurier","line":"escaliers du march\u00e9 18","longitude":6.634234197,"latitude":46.5224330996},{"city":"lausanne","year":1832,"id":1017,"job":"menuisi.","name":"Tonnay","job_desc":"menuisier","line":"escaliers du march\u00e9 6","longitude":6.6336893241,"latitude":46.5221672986},{"city":"lausanne","year":1832,"id":1020,"job":"tabac","name":"Troyon","job_desc":"\u00e9picerie et tabac","line":"place de la Palud 9","longitude":6.6323397566,"latitude":46.5221506248},{"city":"lausanne","year":1832,"id":1020,"job":"\u00e9picerie","name":"Troyon","job_desc":"\u00e9picerie et tabac","line":"place de la Palud 9","longitude":6.6323397566,"latitude":46.5221506248},{"city":"lausanne","year":1832,"id":1024,"job":"chaudronni.","name":"Techoudy","job_desc":"chaudronnier","line":"Mont\u00e9e St Fran\u00e7ois 17","longitude":6.6333695426,"latitude":46.5200647876},{"city":"lausanne","year":1832,"id":1026,"job":"taill.","name":"Turin","job_desc":"tailleur","line":"mont\u00e9e de la Palud 16","longitude":6.6334019797,"latitude":46.5214185082},{"city":"lausanne","year":1832,"id":1027,"job":"ling.","name":"Tzelveger (Dlle.)","job_desc":"ling\u00e8re","line":"Halle de St Laurent 47","longitude":6.6281249928,"latitude":46.5236452375},{"city":"lausanne","year":1832,"id":1028,"job":"quincaillerie","name":"Ulmer (fr\u00e8res)","job_desc":"quincaillerie","line":"mont\u00e9e\u00ad de la Palud 11","longitude":6.6331785124,"latitude":46.5214499502},{"city":"lausanne","year":1832,"id":1030,"job":"billard","name":"Valet","job_desc":"caf\u00e9 et billard","line":"Grand St Jean 1","longitude":6.6307269349,"latitude":46.5219932129},{"city":"lausanne","year":1832,"id":1030,"job":"cafeti.","name":"Valet","job_desc":"caf\u00e9 et billard","line":"Grand St Jean 1","longitude":6.6307269349,"latitude":46.5219932129},{"city":"lausanne","year":1832,"id":1031,"job":"taill.","name":"Vallon","job_desc":"tailleur","line":"mont\u00e9e de la Palud 1","longitude":6.6333443915,"latitude":46.5210067463},{"city":"lausanne","year":1832,"id":1032,"job":"draperie","name":"Vallotton (L.)","job_desc":"draperie","line":"mont\u00e9e de St Laurent 18","longitude":6.6314272528,"latitude":46.522372764},{"city":"lausanne","year":1832,"id":1033,"job":"horlog.","name":"Vallotton","job_desc":"horloger","line":"Grand St Jean 20","longitude":6.6321407709,"latitude":46.5212960212},{"city":"lausanne","year":1832,"id":1034,"job":"banque","name":"VanderMuelen","job_desc":"banquier","line":"Mont\u00e9e de P\u00e9pinet 29","longitude":6.6320035967,"latitude":46.5202746586},{"city":"lausanne","year":1832,"id":1036,"job":"charcuti.","name":"Vannaz (Rod.)","job_desc":"charcutier","line":"rue de Bourg 26","longitude":6.6361510721,"latitude":46.5200841475},{"city":"lausanne","year":1832,"id":1037,"job":"trait.","name":"Vanney","job_desc":"traiteur","line":"rue de la Madeleine 10","longitude":6.633097493,"latitude":46.5226440741},{"city":"lausanne","year":1832,"id":1038,"job":"taill.","name":"Varnicle","job_desc":"tailleur","line":"rue de la Mercerie 6","longitude":6.6344074212,"latitude":46.5216526295},{"city":"lausanne","year":1832,"id":1039,"job":"bijouti.","name":"Vasserot","job_desc":"bijoutier","line":"mont\u00e9e de la Palud 19","longitude":6.633442041,"latitude":46.5212755118},{"city":"lausanne","year":1832,"id":1040,"job":"institut.","name":"Vaudoncourt (de)","job_desc":"instituteur","line":"rue de la Ma\u00addeleine 13","longitude":6.6330960053,"latitude":46.5224035198},{"city":"lausanne","year":1832,"id":1041,"job":"voituri.","name":"Vaunaise","job_desc":"voiturier","line":"Cheneau de Bourg 43","longitude":6.6365694298,"latitude":46.5205617989},{"city":"lausanne","year":1832,"id":1041,"job":"cocher","name":"Vaunaise","job_desc":"voiturier","line":"Cheneau de Bourg 43","longitude":6.6365694298,"latitude":46.5205617989},{"city":"lausanne","year":1832,"id":1042,"job":"avocat","name":"Vautier","job_desc":"avocat","line":"rue de la Mercerie 18","longitude":6.6339353475,"latitude":46.5217353121},{"city":"lausanne","year":1832,"id":1044,"job":"cordonni.","name":"Velthoz","job_desc":"cordonnier","line":"rue de Bourg 25","longitude":6.6360899382,"latitude":46.5200841475},{"city":"lausanne","year":1832,"id":1045,"job":"m\u00e9decin","name":"Verdeil (fils)","job_desc":"docteur en m\u00e9decine","line":"rue St Pierre 10","longitude":6.6368800511,"latitude":46.5196543835},{"city":"lausanne","year":1832,"id":1045,"job":"doct.","name":"Verdeil (fils)","job_desc":"docteur en m\u00e9decine","line":"rue St Pierre 10","longitude":6.6368800511,"latitude":46.5196543835},{"city":"lausanne","year":1832,"id":1047,"job":"meuni.","name":"Verrey","job_desc":"meunier","line":"rue du Pr\u00e9 26","longitude":6.6357341017,"latitude":46.5209120264},{"city":"lausanne","year":1832,"id":1048,"job":"taill.","name":"Veyrassat (Dlles.)","job_desc":"tailleuses en dames","line":"rue St Pierre 22","longitude":6.6365951575,"latitude":46.5196806991},{"city":"lausanne","year":1832,"id":1049,"job":"trait.","name":"Vez","job_desc":"traiteur","line":"mont\u00e9e de St Laurent 7","longitude":6.6314395759,"latitude":46.5222636586},{"city":"lausanne","year":1832,"id":1050,"job":"jardini.","name":"Vherger","job_desc":"jardinier","line":"rue de Martheray 40","longitude":6.6384022271,"latitude":46.5204310514},{"city":"lausanne","year":1832,"id":1051,"job":"charcuti.","name":"Vieland","job_desc":"charcutier","line":"Petit St Jean 3","longitude":6.6329012128,"latitude":46.521016222},{"city":"lausanne","year":1832,"id":1052,"job":"cordonni.","name":"Villard","job_desc":"cordonnier","line":"rue Chaucrau 16","longitude":6.6312007906,"latitude":46.5231445323},{"city":"lausanne","year":1832,"id":1054,"job":"modiste","name":"Vincent (Dlle.)","job_desc":"modiste","line":"rue de Bourg 36","longitude":6.6346952025,"latitude":46.5200190443},{"city":"lausanne","year":1832,"id":1055,"job":"\u00e9picerie","name":"Vincent (Dlle)","job_desc":"\u00e9picerie","line":"rue du Pr\u00e9 21","longitude":6.635539044,"latitude":46.5209323841},{"city":"lausanne","year":1832,"id":1056,"job":"reli.","name":"Vincent (Jean) (fils)","job_desc":"relieur","line":"rue de Bourg 18","longitude":6.6356273037,"latitude":46.5200841475},{"city":"lausanne","year":1832,"id":1057,"job":"meuni.","name":"Vincent","job_desc":"meunier","line":"rue du Pr\u00e9 6","longitude":6.6342544816,"latitude":46.5210762442},{"city":"lausanne","year":1832,"id":1059,"job":"tourn.","name":"Vogel","job_desc":"tourneur","line":"Cit\u00e9-derri\u00e8re 10","longitude":6.6361203294,"latitude":46.523736167},{"city":"lausanne","year":1832,"id":1060,"job":"tisser.","name":"Vogel","job_desc":"tisserand","line":"Cit\u00e9-derri\u00e8re 34","longitude":6.6355295957,"latitude":46.5230116929},{"city":"lausanne","year":1832,"id":1061,"job":"menuisi.","name":"Voirol (J.-P.)","job_desc":"menuisier","line":"rue du Pr\u00e9 9","longitude":6.6345552107,"latitude":46.5210517246},{"city":"lausanne","year":1832,"id":1063,"job":"cordonni.","name":"Vonwhiller","job_desc":"cordonnier","line":"Martheray 31","longitude":6.6396997875,"latitude":46.5211118781},{"city":"lausanne","year":1832,"id":1068,"job":"institut.","name":"Vullyamoz (Dlle.)","job_desc":"institutrice","line":"mont\u00e9e de St Laurent 4","longitude":6.6316743782,"latitude":46.5222636586},{"city":"lausanne","year":1832,"id":1069,"job":"modiste","name":"Vuilleumier (Dlle.)","job_desc":"modiste","line":"rue de Bourg 34","longitude":6.6350955838,"latitude":46.5199559335},{"city":"lausanne","year":1832,"id":1070,"job":"institut.","name":"Vuilleumier (Mme.)","job_desc":"institutrice","line":"Rue St Pierre 19","longitude":6.636771016,"latitude":46.5195955823},{"city":"lausanne","year":1832,"id":1071,"job":"march.","name":"W\u00e4chterh\u00e4user","job_desc":"marchand","line":"rue du Pr\u00e9 36","longitude":6.6351269869,"latitude":46.5208808398},{"city":"lausanne","year":1832,"id":1073,"job":"tonneli.","name":"Wamsganz","job_desc":"tonnelier","line":"Grand St Jean 40","longitude":6.6312232182,"latitude":46.5214514997},{"city":"lausanne","year":1832,"id":1075,"job":"institut.","name":"Weber","job_desc":"instituteur","line":"Petit St-Jean 10","longitude":6.6332830475,"latitude":46.5208990674},{"city":"lausanne","year":1832,"id":1076,"job":"courti.","name":"Wagni\u00e8re","job_desc":"courtier","line":"mont\u00e9e St Fran\u00e7ois 10","longitude":6.6327046074,"latitude":46.5199073838},{"city":"lausanne","year":1832,"id":1079,"job":"tonneli.","name":"Wegmann","job_desc":"tonnelier","line":"rue de la Mercerie 6","longitude":6.6344074212,"latitude":46.5216526295},{"city":"lausanne","year":1832,"id":1080,"job":"modiste","name":"Wehrlin (Dlles.)","job_desc":"modistes","line":"rue de Bourg 31","longitude":6.6354405976,"latitude":46.5199397579},{"city":"lausanne","year":1832,"id":1081,"job":"tonneli.","name":"Wehrlin","job_desc":"tonnelier","line":"Cheneau de Bourg 37","longitude":6.6364538813,"latitude":46.5207331104},{"city":"lausanne","year":1832,"id":1084,"job":"confis.","name":"Weibel","job_desc":"confiseur","line":"place St Fran\u00e7ois 9","longitude":6.6326431152,"latitude":46.5198910228},{"city":"lausanne","year":1832,"id":1085,"job":"boulang.","name":"Weibel","job_desc":"boulanger","line":"Rue du Grand Ch\u00e8ne 28","longitude":6.6315627092,"latitude":46.5198404431},{"city":"lausanne","year":1832,"id":1086,"job":"taill.","name":"bis Weibel (Dlle.)","job_desc":"tailleuse en dames","line":"rue Chaucrau 35","longitude":6.6309030301,"latitude":46.5226606362},{"city":"lausanne","year":1832,"id":1087,"job":"tisser.","name":"Weibel (Dlle.)","job_desc":"tailleuse en dames","line":"mont\u00e9e de St Fran\u00e7ois 24","longitude":6.6334510187,"latitude":46.5208043227},{"city":"lausanne","year":1832,"id":1087,"job":"tisser.","name":"bis Weibel","job_desc":"tisserand","line":"Halle de St Laurent 18","longitude":6.6334510187,"latitude":46.5208043227},{"city":"lausanne","year":1832,"id":1087,"job":"taill.","name":"Weibel (Dlle.)","job_desc":"tailleuse en dames","line":"mont\u00e9e de St Fran\u00e7ois 24","longitude":6.6334510187,"latitude":46.5208043227},{"city":"lausanne","year":1832,"id":1087,"job":"taill.","name":"bis Weibel","job_desc":"tisserand","line":"Halle de St Laurent 18","longitude":6.6334510187,"latitude":46.5208043227},{"city":"lausanne","year":1832,"id":1087,"job":"tisser.","name":"Weibel (Dlle.)","job_desc":"tailleuse en dames","line":"mont\u00e9e de St Fran\u00e7ois 24","longitude":6.6284427899,"latitude":46.5233662324},{"city":"lausanne","year":1832,"id":1087,"job":"tisser.","name":"bis Weibel","job_desc":"tisserand","line":"Halle de St Laurent 18","longitude":6.6284427899,"latitude":46.5233662324},{"city":"lausanne","year":1832,"id":1087,"job":"taill.","name":"Weibel (Dlle.)","job_desc":"tailleuse en dames","line":"mont\u00e9e de St Fran\u00e7ois 24","longitude":6.6284427899,"latitude":46.5233662324},{"city":"lausanne","year":1832,"id":1087,"job":"taill.","name":"bis Weibel","job_desc":"tisserand","line":"Halle de St Laurent 18","longitude":6.6284427899,"latitude":46.5233662324},{"city":"lausanne","year":1832,"id":1088,"job":"menuisi.","name":"Wellenberger","job_desc":"menuisier","line":"rue du Grand St Jean 34","longitude":6.6316646935,"latitude":46.5212610754},{"city":"lausanne","year":1832,"id":1088,"job":"menuisi.","name":"bis Wenger (David)","job_desc":"fabricant de papiers peints et miroitier","line":"rue de Bourg 8","longitude":6.6316646935,"latitude":46.5212610754},{"city":"lausanne","year":1832,"id":1088,"job":"menuisi.","name":"Wellenberger","job_desc":"menuisier","line":"rue du Grand St Jean 34","longitude":6.634478836,"latitude":46.5201577264},{"city":"lausanne","year":1832,"id":1088,"job":"menuisi.","name":"bis Wenger (David)","job_desc":"fabricant de papiers peints et miroitier","line":"rue de Bourg 8","longitude":6.634478836,"latitude":46.5201577264},{"city":"lausanne","year":1832,"id":1089,"job":"gypsi.","name":"bis Wenger (Ch.)","job_desc":"gypsier","line":"Halle de St Laurent 59","longitude":6.6287966377,"latitude":46.5234251179},{"city":"lausanne","year":1832,"id":1089,"job":"gypsi.","name":"Wenger (fils)","job_desc":"architecte","line":"rue de Bourg 8","longitude":6.6287966377,"latitude":46.5234251179},{"city":"lausanne","year":1832,"id":1089,"job":"architecte","name":"bis Wenger (Ch.)","job_desc":"gypsier","line":"Halle de St Laurent 59","longitude":6.6287966377,"latitude":46.5234251179},{"city":"lausanne","year":1832,"id":1089,"job":"architecte","name":"Wenger (fils)","job_desc":"architecte","line":"rue de Bourg 8","longitude":6.6287966377,"latitude":46.5234251179},{"city":"lausanne","year":1832,"id":1089,"job":"gypsi.","name":"bis Wenger (Ch.)","job_desc":"gypsier","line":"Halle de St Laurent 59","longitude":6.634478836,"latitude":46.5201577264},{"city":"lausanne","year":1832,"id":1089,"job":"gypsi.","name":"Wenger (fils)","job_desc":"architecte","line":"rue de Bourg 8","longitude":6.634478836,"latitude":46.5201577264},{"city":"lausanne","year":1832,"id":1089,"job":"architecte","name":"bis Wenger (Ch.)","job_desc":"gypsier","line":"Halle de St Laurent 59","longitude":6.634478836,"latitude":46.5201577264},{"city":"lausanne","year":1832,"id":1089,"job":"architecte","name":"Wenger (fils)","job_desc":"architecte","line":"rue de Bourg 8","longitude":6.634478836,"latitude":46.5201577264},{"city":"lausanne","year":1832,"id":1090,"job":"mar\u00e9chal","name":"bis Weidmann","job_desc":"mar\u00e9chal","line":"Etraz 17","longitude":6.6396719333,"latitude":46.5192283171},{"city":"lausanne","year":1832,"id":1090,"job":"mar\u00e9chal","name":"Wenger","job_desc":"tailleur","line":"rue de la Madeleine 16","longitude":6.6396719333,"latitude":46.5192283171},{"city":"lausanne","year":1832,"id":1090,"job":"taill.","name":"bis Weidmann","job_desc":"mar\u00e9chal","line":"Etraz 17","longitude":6.6396719333,"latitude":46.5192283171},{"city":"lausanne","year":1832,"id":1090,"job":"taill.","name":"Wenger","job_desc":"tailleur","line":"rue de la Madeleine 16","longitude":6.6396719333,"latitude":46.5192283171},{"city":"lausanne","year":1832,"id":1090,"job":"mar\u00e9chal","name":"bis Weidmann","job_desc":"mar\u00e9chal","line":"Etraz 17","longitude":6.6330945177,"latitude":46.5221998155},{"city":"lausanne","year":1832,"id":1090,"job":"mar\u00e9chal","name":"Wenger","job_desc":"tailleur","line":"rue de la Madeleine 16","longitude":6.6330945177,"latitude":46.5221998155},{"city":"lausanne","year":1832,"id":1090,"job":"taill.","name":"bis Weidmann","job_desc":"mar\u00e9chal","line":"Etraz 17","longitude":6.6330945177,"latitude":46.5221998155},{"city":"lausanne","year":1832,"id":1090,"job":"taill.","name":"Wenger","job_desc":"tailleur","line":"rue de la Madeleine 16","longitude":6.6330945177,"latitude":46.5221998155},{"city":"lausanne","year":1832,"id":1091,"job":"charron","name":"Weidmann","job_desc":"charron","line":"Martheray 1","longitude":6.6376245168,"latitude":46.5198245226},{"city":"lausanne","year":1832,"id":1091,"job":"charron","name":"bis Weiler (fr\u00e8res)","job_desc":"marchands","line":"rue du Petit-St Jean 15","longitude":6.6376245168,"latitude":46.5198245226},{"city":"lausanne","year":1832,"id":1091,"job":"march.","name":"Weidmann","job_desc":"charron","line":"Martheray 1","longitude":6.6376245168,"latitude":46.5198245226},{"city":"lausanne","year":1832,"id":1091,"job":"march.","name":"bis Weiler (fr\u00e8res)","job_desc":"marchands","line":"rue du Petit-St Jean 15","longitude":6.6376245168,"latitude":46.5198245226},{"city":"lausanne","year":1832,"id":1091,"job":"charron","name":"Weidmann","job_desc":"charron","line":"Martheray 1","longitude":6.6328987089,"latitude":46.5211859234},{"city":"lausanne","year":1832,"id":1091,"job":"charron","name":"bis Weiler (fr\u00e8res)","job_desc":"marchands","line":"rue du Petit-St Jean 15","longitude":6.6328987089,"latitude":46.5211859234},{"city":"lausanne","year":1832,"id":1091,"job":"march.","name":"Weidmann","job_desc":"charron","line":"Martheray 1","longitude":6.6328987089,"latitude":46.5211859234},{"city":"lausanne","year":1832,"id":1091,"job":"march.","name":"bis Weiler (fr\u00e8res)","job_desc":"marchands","line":"rue du Petit-St Jean 15","longitude":6.6328987089,"latitude":46.5211859234},{"city":"lausanne","year":1832,"id":1092,"job":"n\u00e9goce","name":"Weiler (fr\u00e8res)","job_desc":"n\u00e9gociant","line":"Mont\u00e9e de St Laur 8","longitude":6.6312883229,"latitude":46.5222666321},{"city":"lausanne","year":1832,"id":1092,"job":"n\u00e9goce","name":"bis Will (A.)","job_desc":"fabricant de bas","line":"Rue de Chaucrau 14","longitude":6.6312883229,"latitude":46.5222666321},{"city":"lausanne","year":1832,"id":1092,"job":"n\u00e9goce","name":"Weiler (fr\u00e8res)","job_desc":"n\u00e9gociant","line":"Mont\u00e9e de St Laur 8","longitude":6.6312007906,"latitude":46.5231445323},{"city":"lausanne","year":1832,"id":1092,"job":"n\u00e9goce","name":"bis Will (A.)","job_desc":"fabricant de bas","line":"Rue de Chaucrau 14","longitude":6.6312007906,"latitude":46.5231445323},{"city":"lausanne","year":1832,"id":1093,"job":"charpenti.","name":"Willer (G.)","job_desc":"gypsier","line":"Grand St Jean 39","longitude":6.6312956992,"latitude":46.5214197623},{"city":"lausanne","year":1832,"id":1093,"job":"charpenti.","name":"bis Willer (Christ)","job_desc":"charpentier","line":"Martheray","longitude":6.6312956992,"latitude":46.5214197623},{"city":"lausanne","year":1832,"id":1093,"job":"gypsi.","name":"Willer (G.)","job_desc":"gypsier","line":"Grand St Jean 39","longitude":6.6312956992,"latitude":46.5214197623},{"city":"lausanne","year":1832,"id":1093,"job":"gypsi.","name":"bis Willer (Christ)","job_desc":"charpentier","line":"Martheray","longitude":6.6312956992,"latitude":46.5214197623},{"city":"lausanne","year":1832,"id":1093,"job":"charpenti.","name":"Willer (G.)","job_desc":"gypsier","line":"Grand St Jean 39","longitude":6.6376245168,"latitude":46.5198245226},{"city":"lausanne","year":1832,"id":1093,"job":"charpenti.","name":"bis Willer (Christ)","job_desc":"charpentier","line":"Martheray","longitude":6.6376245168,"latitude":46.5198245226},{"city":"lausanne","year":1832,"id":1093,"job":"gypsi.","name":"Willer (G.)","job_desc":"gypsier","line":"Grand St Jean 39","longitude":6.6376245168,"latitude":46.5198245226},{"city":"lausanne","year":1832,"id":1093,"job":"gypsi.","name":"bis Willer (Christ)","job_desc":"charpentier","line":"Martheray","longitude":6.6376245168,"latitude":46.5198245226},{"city":"lausanne","year":1832,"id":1094,"job":"reli.","name":"Witschy","job_desc":"ma\u00e7on","line":"Cheneau de Bourg 41","longitude":6.6367493044,"latitude":46.5206265531},{"city":"lausanne","year":1832,"id":1094,"job":"reli.","name":"bis Wulschleger","job_desc":"relieur","line":"place de la Palud 5","longitude":6.6367493044,"latitude":46.5206265531},{"city":"lausanne","year":1832,"id":1094,"job":"ma\u00e7on.","name":"Witschy","job_desc":"ma\u00e7on","line":"Cheneau de Bourg 41","longitude":6.6367493044,"latitude":46.5206265531},{"city":"lausanne","year":1832,"id":1094,"job":"ma\u00e7on.","name":"bis Wulschleger","job_desc":"relieur","line":"place de la Palud 5","longitude":6.6367493044,"latitude":46.5206265531},{"city":"lausanne","year":1832,"id":1094,"job":"reli.","name":"Witschy","job_desc":"ma\u00e7on","line":"Cheneau de Bourg 41","longitude":6.632547763,"latitude":46.5220272421},{"city":"lausanne","year":1832,"id":1094,"job":"reli.","name":"bis Wulschleger","job_desc":"relieur","line":"place de la Palud 5","longitude":6.632547763,"latitude":46.5220272421},{"city":"lausanne","year":1832,"id":1094,"job":"ma\u00e7on.","name":"Witschy","job_desc":"ma\u00e7on","line":"Cheneau de Bourg 41","longitude":6.632547763,"latitude":46.5220272421},{"city":"lausanne","year":1832,"id":1094,"job":"ma\u00e7on.","name":"bis Wulschleger","job_desc":"relieur","line":"place de la Palud 5","longitude":6.632547763,"latitude":46.5220272421},{"city":"lausanne","year":1832,"id":1095,"job":"cordonni.","name":"Wursten","job_desc":"cordonnier","line":"Rue de la Madeleine 18","longitude":6.6330826161,"latitude":46.5220380799},{"city":"lausanne","year":1832,"id":1096,"job":"chapeli.","name":"Yenny","job_desc":"chapelier","line":"Grand St Jean 33","longitude":6.6317152105,"latitude":46.5212565415},{"city":"lausanne","year":1832,"id":1098,"job":"menuisi.","name":"Ziegler","job_desc":"menuisier","line":"rue Chaucrau 27","longitude":6.6311353167,"latitude":46.5229360051},{"city":"lausanne","year":1832,"id":1103,"job":"menuisi.","name":"bis Zulauf","job_desc":"menuisier","line":"Cit\u00e9-derri\u00e8re 37","longitude":6.6355295957,"latitude":46.5230116929},{"city":"lausanne","year":1832,"id":1103,"job":"menuisi.","name":"Zink","job_desc":"m\u00e9decin et chirurgien","line":"rue de la Madeleine 1","longitude":6.6355295957,"latitude":46.5230116929},{"city":"lausanne","year":1832,"id":1103,"job":"menuisi.","name":"bis Zulauf","job_desc":"menuisier","line":"Cit\u00e9-derri\u00e8re 37","longitude":6.6329279126,"latitude":46.5221308836},{"city":"lausanne","year":1832,"id":1103,"job":"menuisi.","name":"Zink","job_desc":"m\u00e9decin et chirurgien","line":"rue de la Madeleine 1","longitude":6.6329279126,"latitude":46.5221308836},{"city":"lausanne","year":1832,"id":1104,"job":"lithographie","name":"* Zwahlen (Jean.-P.)","job_desc":"lithographe","line":"rue du Grand St Jean 36","longitude":6.6315043567,"latitude":46.5213290841},{"city":"new york","year":1839,"id":1104,"job":"lithographie","name":"* Zwahlen (Jean.-P.)","job_desc":"lithographe","line":"rue du Grand St Jean 36","longitude":-74.01,"latitude":40.731},{"city":"new york","year":1839,"id":1104,"job":"lithographie","name":"* Zwahlen (Jean.-P.)","job_desc":"lithographe","line":"rue du Grand St Jean 36","longitude":-73.99,"latitude":40.73}]