[{"city":"lausanne","year":1832,"id":"id","job":"architecte","name":"jaques","job_desc":"fancy architecte","line":"the whole line","longitude":6.6300609365,"latitude":46.5227116087},{"city":"lausanne","year":1832,"id":"id","job":"architecte","name":"jean","job_desc":"less cool architecte","line":"the whole the whole line","longitude":6.6326431152,"latitude":46.5198910228},{"city":"lausanne","year":1832,"id":"id","job":"architecte","name":"jacob","job_desc":"architecte","line":"the whole line","longitude":6.6305662422,"latitude":46.5223747951},{"city":"lausanne","year":1832,"id":"id","job":"architecte","name":"pierre","job_desc":"architecte","line":"the whole line","longitude":6.6333957201,"latitude":46.5215408302},{"city":"lausanne","year":1832,"id":"id","job":"architecte","name":"francois","job_desc":"architecte","line":"the whole line","longitude":6.6320035967,"latitude":46.5202746586},{"city":"lausanne","year":1832,"id":"id","job":"architecte","name":"le lausannois","job_desc":"less cool architecte","line":"the whole line","longitude":6.6287966377,"latitude":46.5234251179},{"city":"lausanne","year":1832,"id":"id","job":"architecte","name":"mr. br\u00e9laz","job_desc":"architecte","line":"the whole line","longitude":6.634478836,"latitude":46.5201577264},{"city":"lausanne","year":1832,"id":"id","job":"charcuti.","name":"other jaques","job_desc":"fancy charcutier","line":"the whole line","longitude":6.6332467419,"latitude":46.5212117662},{"city":"lausanne","year":1832,"id":"id","job":"charcuti.","name":"other jean","job_desc":"less cool charcutier","line":"the whole the whole line","longitude":6.6316258065,"latitude":46.5214298212},{"city":"lausanne","year":1832,"id":"id","job":"charcuti.","name":"other jacob","job_desc":"charcutier","line":"the whole line","longitude":6.6331979172,"latitude":46.52134701},{"city":"lausanne","year":1832,"id":"id","job":"charcuti.","name":"other pierre","job_desc":"charcuti\u00e8re","line":"the whole line","longitude":6.6304620702,"latitude":46.5221402103},{"city":"lausanne","year":1832,"id":"id","job":"charcuti.","name":"other francois","job_desc":"charcutier","line":"the whole line","longitude":6.6361510721,"latitude":46.5200841475},{"city":"lausanne","year":1832,"id":"id","job":"charcuti.","name":"other le lausannois","job_desc":"less cool charcutier","line":"the whole line","longitude":6.6329012128,"latitude":46.521016222}]